{
"type": "FeatureCollection",
"crs": { "type": "name", "properties": { "name": "urn:ogc:def:crs:OGC:1.3:CRS84" } },
"features": [
{ "type": "Feature", "properties": { "NAME": "蜀郡平泽", "ID": "211047", "SOURCE": "神农本草经", "QUOTE": "生蜀郡平泽，采无时。", "PRECISION": 2, "CLASS": "lower", "HERB": "青琅_", "TYPE": "TRUE", "X": 104.075475, "Y": 30.665916 }, "geometry": { "type": "Point", "coordinates": [ 104.075475, 30.665916 ] } },
{ "type": "Feature", "properties": { "NAME": "长子山谷", "ID": "95323", "SOURCE": "神农本草经", "QUOTE": "生长子山谷及太山、临淄，采无时。", "PRECISION": 3, "CLASS": "middle", "HERB": "长石", "TYPE": "TRUE", "X": 112.863149, "Y": 36.116395 }, "geometry": { "type": "Point", "coordinates": [ 112.863149, 36.116395 ] } },
{ "type": "Feature", "properties": { "NAME": "益州山谷", "ID": "hvd_113523", "SOURCE": "神农本草经", "QUOTE": "生益州山谷及武都、陇西、西羌，采无时。", "PRECISION": 1, "CLASS": "upper", "HERB": "硝石", "TYPE": "TRUE", "X": 104.078, "Y": 30.65039 }, "geometry": { "type": "Point", "coordinates": [ 104.078, 30.65039 ] } },
{ "type": "Feature", "properties": { "NAME": "太山", "ID": "taishan", "SOURCE": "神农本草经", "QUOTE": "生长子山谷及太山、临淄，采无时。", "PRECISION": 4, "CLASS": "middle", "HERB": "长石", "TYPE": "TRUE", "X": 117.103175, "Y": 36.2569183 }, "geometry": { "type": "Point", "coordinates": [ 117.103175, 36.2569183 ] } },
{ "type": "Feature", "properties": { "NAME": "武都", "ID": "hvd_110180", "SOURCE": "神农本草经", "QUOTE": "生益州山谷及武都、陇西、西羌，采无时。", "PRECISION": 2, "CLASS": "upper", "HERB": "硝石", "TYPE": "TRUE", "X": 104.92928, "Y": 33.39484 }, "geometry": { "type": "Point", "coordinates": [ 104.92928, 33.39484 ] } },
{ "type": "Feature", "properties": { "NAME": "临淄", "ID": "85234", "SOURCE": "神农本草经", "QUOTE": "生长子山谷及太山、临淄，采无时。", "PRECISION": 3, "CLASS": "middle", "HERB": "长石", "TYPE": "TRUE", "X": 118.37041, "Y": 36.86401 }, "geometry": { "type": "Point", "coordinates": [ 118.37041, 36.86401 ] } },
{ "type": "Feature", "properties": { "NAME": "陇西", "ID": "hvd_110181", "SOURCE": "神农本草经", "QUOTE": "生益州山谷及武都、陇西、西羌，采无时。", "PRECISION": 2, "CLASS": "upper", "HERB": "硝石", "TYPE": "TRUE", "X": 104.65988, "Y": 34.9836 }, "geometry": { "type": "Point", "coordinates": [ 104.65988, 34.9836 ] } },
{ "type": "Feature", "properties": { "NAME": "汉中山谷", "ID": "211672", "SOURCE": "神农本草经", "QUOTE": "生汉中山谷及少室，采无时。", "PRECISION": 2, "CLASS": "lower", "HERB": "【兴石】石", "TYPE": "TRUE", "X": 107.036067, "Y": 33.072893 }, "geometry": { "type": "Point", "coordinates": [ 107.036067, 33.072893 ] } },
{ "type": "Feature", "properties": { "NAME": "西羌", "ID": "qiangdao", "SOURCE": "神农本草经", "QUOTE": "生益州山谷及武都、陇西、西羌，采无时。", "PRECISION": 1, "CLASS": "upper", "HERB": "硝石", "TYPE": "TRUE", "X": 104.28436, "Y": 33.62903 }, "geometry": { "type": "Point", "coordinates": [ 104.28436, 33.62903 ] } },
{ "type": "Feature", "properties": { "NAME": "少室", "ID": "songshan", "SOURCE": "神农本草经", "QUOTE": "生汉中山谷及少室，采无时。", "PRECISION": 4, "CLASS": "lower", "HERB": "【兴石】石", "TYPE": "TRUE", "X": 112.9865424, "Y": 34.5196623 }, "geometry": { "type": "Point", "coordinates": [ 112.9865424, 34.5196623 ] } },
{ "type": "Feature", "properties": { "NAME": "益州川谷", "ID": "211050", "SOURCE": "神农本草经", "QUOTE": "生益州川谷。", "PRECISION": 1, "CLASS": "middle", "HERB": "肤青", "TYPE": "TRUE", "X": 104.286183, "Y": 30.994009 }, "geometry": { "type": "Point", "coordinates": [ 104.286183, 30.994009 ] } },
{ "type": "Feature", "properties": { "NAME": "牧羊平泽", "ID": "212614", "SOURCE": "神农本草经", "QUOTE": "生牧羊平泽及枋城、或析城，采无时。", "PRECISION": 4, "CLASS": "middle", "HERB": "铁落", "TYPE": "TRUE", "X": 118.340384, "Y": 34.636984 }, "geometry": { "type": "Point", "coordinates": [ 118.340384, 34.636984 ] } },
{ "type": "Feature", "properties": { "NAME": "枋城", "ID": "fangcheng", "SOURCE": "神农本草经", "QUOTE": "生牧羊平泽及枋城、或析城，采无时。", "PRECISION": 3, "CLASS": "middle", "HERB": "铁落", "TYPE": "TRUE", "X": 114.2266873, "Y": 35.6444798 }, "geometry": { "type": "Point", "coordinates": [ 114.2266873, 35.6444798 ] } },
{ "type": "Feature", "properties": { "NAME": "河西山谷", "ID": "hexi", "SOURCE": "神农本草经", "QUOTE": "生河西山谷，及陇西武都、石门，采无时。", "PRECISION": 1, "CLASS": "upper", "HERB": "矾石", "TYPE": "TRUE", "X": 101.5818192, "Y": 35.3002082 }, "geometry": { "type": "Point", "coordinates": [ 101.5818192, 35.3002082 ] } },
{ "type": "Feature", "properties": { "NAME": "析城", "ID": "xicheng", "SOURCE": "神农本草经", "QUOTE": "生牧羊平泽及枋城、或析城，采无时。", "PRECISION": 3, "CLASS": "middle", "HERB": "铁落", "TYPE": "TRUE", "X": 112.3607073, "Y": 35.4653663 }, "geometry": { "type": "Point", "coordinates": [ 112.3607073, 35.4653663 ] } },
{ "type": "Feature", "properties": { "NAME": "陇西武都", "ID": "hvd_112802", "SOURCE": "神农本草经", "QUOTE": "生河西山谷，及陇西武都、石门，采无时。", "PRECISION": 2, "CLASS": "upper", "HERB": "矾石", "TYPE": "TRUE", "X": 105.21498, "Y": 33.95291 }, "geometry": { "type": "Point", "coordinates": [ 105.21498, 33.95291 ] } },
{ "type": "Feature", "properties": { "NAME": "石门", "ID": "hvd_112802", "SOURCE": "神农本草经", "QUOTE": "生河西山谷，及陇西武都、石门，采无时。", "PRECISION": 3, "CLASS": "upper", "HERB": "矾石", "TYPE": "TRUE", "X": 105.21498, "Y": 33.95291 }, "geometry": { "type": "Point", "coordinates": [ 105.21498, 33.95291 ] } },
{ "type": "Feature", "properties": { "NAME": "赭阳山谷", "ID": "hvd_82783", "SOURCE": "神农本草经", "QUOTE": "生赭阳山谷，及太山之阴，或掖北白山，或卷山，采无时。", "PRECISION": 3, "CLASS": "upper", "HERB": "滑石", "TYPE": "TRUE", "X": 113.02336, "Y": 33.25974 }, "geometry": { "type": "Point", "coordinates": [ 113.02336, 33.25974 ] } },
{ "type": "Feature", "properties": { "NAME": "西城", "ID": "200069", "SOURCE": "神农本草经", "QUOTE": "生西城，采无时。", "PRECISION": 3, "CLASS": "lower", "HERB": "特【兴石】石", "TYPE": "TRUE", "X": 109.01698, "Y": 32.70456 }, "geometry": { "type": "Point", "coordinates": [ 109.01698, 32.70456 ] } },
{ "type": "Feature", "properties": { "NAME": "太山之阴", "ID": "taishan", "SOURCE": "神农本草经", "QUOTE": "生赭阳山谷，及太山之阴，或掖北白山，或卷山，采无时。", "PRECISION": 4, "CLASS": "upper", "HERB": "滑石", "TYPE": "TRUE", "X": 117.103175, "Y": 36.2569183 }, "geometry": { "type": "Point", "coordinates": [ 117.103175, 36.2569183 ] } },
{ "type": "Feature", "properties": { "NAME": "掖北白山", "ID": "hvd_85433", "SOURCE": "神农本草经", "QUOTE": "生赭阳山谷，及太山之阴，或掖北白山，或卷山，采无时。", "PRECISION": 4, "CLASS": "upper", "HERB": "滑石", "TYPE": "TRUE", "X": 119.938, "Y": 37.17543 }, "geometry": { "type": "Point", "coordinates": [ 119.938, 37.17543 ] } },
{ "type": "Feature", "properties": { "NAME": "卷山", "ID": "hvd_82523", "SOURCE": "神农本草经", "QUOTE": "生赭阳山谷，及太山之阴，或掖北白山，或卷山，采无时。", "PRECISION": 4, "CLASS": "upper", "HERB": "滑石", "TYPE": "TRUE", "X": 113.78767, "Y": 35.03897 }, "geometry": { "type": "Point", "coordinates": [ 113.78767, 35.03897 ] } },
{ "type": "Feature", "properties": { "NAME": "西城", "ID": "200069", "SOURCE": "神农本草经", "QUOTE": "生西城，采无时。", "PRECISION": 3, "CLASS": "lower", "HERB": "苍石", "TYPE": "TRUE", "X": 109.01698, "Y": 32.70456 }, "geometry": { "type": "Point", "coordinates": [ 109.01698, 32.70456 ] } },
{ "type": "Feature", "properties": { "NAME": "太山山谷", "ID": "taishan", "SOURCE": "神农本草经", "QUOTE": "生太山山谷，采无时。", "PRECISION": 4, "CLASS": "upper", "HERB": "紫石英", "TYPE": "TRUE", "X": 117.103175, "Y": 36.2569183 }, "geometry": { "type": "Point", "coordinates": [ 117.103175, 36.2569183 ] } },
{ "type": "Feature", "properties": { "NAME": "齐国山谷", "ID": "210495", "SOURCE": "神农本草经", "QUOTE": "生齐国山谷，赤红青色，如鸡冠有泽，染爪甲不渝者良，采无时。", "PRECISION": 1, "CLASS": "lower", "HERB": "代赭", "TYPE": "TRUE", "X": 118.344592, "Y": 36.851221 }, "geometry": { "type": "Point", "coordinates": [ 118.344592, 36.851221 ] } },
{ "type": "Feature", "properties": { "NAME": "太山", "ID": "taishan", "SOURCE": "神农本草经", "QUOTE": "生华阴山谷，及太山，大如指，长二、三寸，六面如削，白澈有光。", "PRECISION": 4, "CLASS": "upper", "HERB": "白石英", "TYPE": "TRUE", "X": 117.103175, "Y": 36.2569183 }, "geometry": { "type": "Point", "coordinates": [ 117.103175, 36.2569183 ] } },
{ "type": "Feature", "properties": { "NAME": "齐区山及海崖", "ID": "hvd_115689", "SOURCE": "神农本草经", "QUOTE": "生齐区山及海崖，采无时。", "PRECISION": 1, "CLASS": "upper", "HERB": "青石脂", "TYPE": "TRUE", "X": 118.28753, "Y": 36.80961 }, "geometry": { "type": "Point", "coordinates": [ 118.28753, 36.80961 ] } },
{ "type": "Feature", "properties": { "NAME": "河东盐池", "ID": "yanchi", "SOURCE": "神农本草经", "QUOTE": "生河东盐池。", "PRECISION": 4, "CLASS": "lower", "HERB": "卤咸", "TYPE": "TRUE", "X": 111.0076, "Y": 35.0264 }, "geometry": { "type": "Point", "coordinates": [ 111.0076, 35.0264 ] } },
{ "type": "Feature", "properties": { "NAME": "射阳", "ID": "hvd_42737", "SOURCE": "神农本草经", "QUOTE": "射阳、及太山之阴，采无时。", "PRECISION": 3, "CLASS": "upper", "HERB": "青石脂", "TYPE": "TRUE", "X": 119.61617, "Y": 33.305 }, "geometry": { "type": "Point", "coordinates": [ 119.61617, 33.305 ] } },
{ "type": "Feature", "properties": { "NAME": "太山之阴", "ID": "taishan", "SOURCE": "神农本草经", "QUOTE": "射阳、及太山之阴，采无时。", "PRECISION": 4, "CLASS": "upper", "HERB": "青石脂", "TYPE": "TRUE", "X": 117.103175, "Y": 36.2569183 }, "geometry": { "type": "Point", "coordinates": [ 117.103175, 36.2569183 ] } },
{ "type": "Feature", "properties": { "NAME": "邯郸", "ID": "87010", "SOURCE": "神农本草经", "QUOTE": "生邯郸及河东池泽。", "PRECISION": 3, "CLASS": "lower", "HERB": "大盐", "TYPE": "TRUE", "X": 114.47204, "Y": 36.59347 }, "geometry": { "type": "Point", "coordinates": [ 114.47204, 36.59347 ] } },
{ "type": "Feature", "properties": { "NAME": "河东池泽", "ID": "yanchi", "SOURCE": "神农本草经", "QUOTE": "生邯郸及河东池泽。", "PRECISION": 4, "CLASS": "lower", "HERB": "大盐", "TYPE": "TRUE", "X": 111.0076, "Y": 35.0264 }, "geometry": { "type": "Point", "coordinates": [ 111.0076, 35.0264 ] } },
{ "type": "Feature", "properties": { "NAME": "西羌北地", "ID": "qiangdao", "SOURCE": "神农本草经", "QUOTE": "一名胡盐，生胡盐山，及西羌北地，及酒泉福禄城东南角。", "PRECISION": 1, "CLASS": "lower", "HERB": "戎盐", "TYPE": "TRUE", "X": 104.28436, "Y": 33.62903 }, "geometry": { "type": "Point", "coordinates": [ 104.28436, 33.62903 ] } },
{ "type": "Feature", "properties": { "NAME": "酒泉福禄城东南角", "ID": "211885", "SOURCE": "神农本草经", "QUOTE": "一名胡盐，生胡盐山，及西羌北地，及酒泉福禄城东南角。", "PRECISION": 4, "CLASS": "lower", "HERB": "戎盐", "TYPE": "TRUE", "X": 98.510691, "Y": 39.743699 }, "geometry": { "type": "Point", "coordinates": [ 98.510691, 39.743699 ] } },
{ "type": "Feature", "properties": { "NAME": "嵩高山", "ID": "songshan", "SOURCE": "神农本草经", "QUOTE": "生嵩高山，色如莺雏，采无时。", "PRECISION": 4, "CLASS": "upper", "HERB": "黄石脂", "TYPE": "TRUE", "X": 112.9865424, "Y": 34.5196623 }, "geometry": { "type": "Point", "coordinates": [ 112.9865424, 34.5196623 ] } },
{ "type": "Feature", "properties": { "NAME": "北海", "ID": "210521", "SOURCE": "神农本草经", "QUOTE": "北海青，南海赤。十月采。", "PRECISION": 2, "CLASS": "lower", "HERB": "戎盐", "TYPE": "TRUE", "X": 118.88799, "Y": 36.630444 }, "geometry": { "type": "Point", "coordinates": [ 118.88799, 36.630444 ] } },
{ "type": "Feature", "properties": { "NAME": "太山之阴", "ID": "taishan", "SOURCE": "神农本草经", "QUOTE": "生太山之阴，采无时。", "PRECISION": 4, "CLASS": "upper", "HERB": "白石脂", "TYPE": "TRUE", "X": 117.103175, "Y": 36.2569183 }, "geometry": { "type": "Point", "coordinates": [ 117.103175, 36.2569183 ] } },
{ "type": "Feature", "properties": { "NAME": "南海", "ID": "34191", "SOURCE": "神农本草经", "QUOTE": "北海青，南海赤。十月采。", "PRECISION": 2, "CLASS": "lower", "HERB": "戎盐", "TYPE": "TRUE", "X": 113.256066, "Y": 23.134624 }, "geometry": { "type": "Point", "coordinates": [ 113.256066, 23.134624 ] } },
{ "type": "Feature", "properties": { "NAME": "颖川阳城", "ID": "hvd_116101", "SOURCE": "神农本草经", "QUOTE": "出颖川阳城，采无时。", "PRECISION": 3, "CLASS": "upper", "HERB": "黑石脂", "TYPE": "TRUE", "X": 113.46706, "Y": 34.16249 }, "geometry": { "type": "Point", "coordinates": [ 113.46706, 34.16249 ] } },
{ "type": "Feature", "properties": { "NAME": "太山山谷", "ID": "taishan", "SOURCE": "神农本草经", "QUOTE": "生太山山谷，九月采。", "PRECISION": 4, "CLASS": "upper", "HERB": "太一禹余粮", "TYPE": "TRUE", "X": 117.103175, "Y": 36.2569183 }, "geometry": { "type": "Point", "coordinates": [ 117.103175, 36.2569183 ] } },
{ "type": "Feature", "properties": { "NAME": "东海", "ID": "hvd_33402", "SOURCE": "神农本草经", "QUOTE": "生东海池泽，及山岛中或池泽中。", "PRECISION": 2, "CLASS": "upper", "HERB": "禹余粮", "TYPE": "TRUE", "X": 118.30271, "Y": 34.64131 }, "geometry": { "type": "Point", "coordinates": [ 118.30271, 34.64131 ] } },
{ "type": "Feature", "properties": { "NAME": "邯郸山谷", "ID": "87010", "SOURCE": "神农本草经", "QUOTE": "生邯郸山谷，采无时。", "PRECISION": 4, "CLASS": "lower", "HERB": "白垩", "TYPE": "TRUE", "X": 114.47204, "Y": 36.59347 }, "geometry": { "type": "Point", "coordinates": [ 114.47204, 36.59347 ] } },
{ "type": "Feature", "properties": { "NAME": "蜀郡平泽", "ID": "211047", "SOURCE": "神农本草经", "QUOTE": "生蜀郡平泽。", "PRECISION": 2, "CLASS": "lower", "HERB": "铅丹", "TYPE": "TRUE", "X": 104.075475, "Y": 30.665916 }, "geometry": { "type": "Point", "coordinates": [ 104.075475, 30.665916 ] } },
{ "type": "Feature", "properties": { "NAME": "益州", "ID": "211050", "SOURCE": "神农本草经", "QUOTE": "生益州，采无时。", "PRECISION": 1, "CLASS": "middle", "HERB": "金屑", "TYPE": "TRUE", "X": 104.286183, "Y": 30.994009 }, "geometry": { "type": "Point", "coordinates": [ 104.286183, 30.994009 ] } },
{ "type": "Feature", "properties": { "NAME": "桂阳山谷", "ID": "32836", "SOURCE": "神农本草经", "QUOTE": "生桂阳山谷。", "PRECISION": 2, "CLASS": "lower", "HERB": "锡铜镜鼻", "TYPE": "TRUE", "X": 113.025139, "Y": 25.802719 }, "geometry": { "type": "Point", "coordinates": [ 113.025139, 25.802719 ] } },
{ "type": "Feature", "properties": { "NAME": "中山川谷", "ID": "212393", "SOURCE": "神农本草经", "QUOTE": "生中山川谷。", "PRECISION": 2, "CLASS": "lower", "HERB": "锻石", "TYPE": "TRUE", "X": 114.563995, "Y": 38.140121 }, "geometry": { "type": "Point", "coordinates": [ 114.563995, 38.140121 ] } },
{ "type": "Feature", "properties": { "NAME": "永昌", "ID": "211954", "SOURCE": "神农本草经", "QUOTE": "生永昌，采无时。", "PRECISION": 2, "CLASS": "middle", "HERB": "银屑", "TYPE": "TRUE", "X": 99.25789, "Y": 25.15477 }, "geometry": { "type": "Point", "coordinates": [ 99.25789, 25.15477 ] } },
{ "type": "Feature", "properties": { "NAME": "符陵平土", "ID": "211010", "SOURCE": "神农本草经", "QUOTE": "生符陵平土，出于丹砂。", "PRECISION": 2, "CLASS": "middle", "HERB": "水银", "TYPE": "TRUE", "X": 108.160143, "Y": 29.294335 }, "geometry": { "type": "Point", "coordinates": [ 108.160143, 29.294335 ] } },
{ "type": "Feature", "properties": { "NAME": "武都山谷", "ID": "211791", "SOURCE": "神农本草经", "QUOTE": "生武都山谷、敦煌山之阳，采无时。", "PRECISION": 2, "CLASS": "middle", "HERB": "雄黄", "TYPE": "TRUE", "X": 105.655197, "Y": 33.849018 }, "geometry": { "type": "Point", "coordinates": [ 105.655197, 33.849018 ] } },
{ "type": "Feature", "properties": { "NAME": "敦煌山之阳", "ID": "211893", "SOURCE": "神农本草经", "QUOTE": "生武都山谷、敦煌山之阳，采无时。", "PRECISION": 2, "CLASS": "middle", "HERB": "雄黄", "TYPE": "TRUE", "X": 94.524344, "Y": 40.052387 }, "geometry": { "type": "Point", "coordinates": [ 94.524344, 40.052387 ] } },
{ "type": "Feature", "properties": { "NAME": "蓝田山谷", "ID": "hvd_70749", "SOURCE": "神农本草经", "QUOTE": "生蓝田山谷，采无时。", "PRECISION": 3, "CLASS": "upper", "HERB": "玉泉", "TYPE": "TRUE", "X": 109.14697, "Y": 34.23927 }, "geometry": { "type": "Point", "coordinates": [ 109.14697, 34.23927 ] } },
{ "type": "Feature", "properties": { "NAME": "蓝田", "ID": "hvd_70749", "SOURCE": "神农本草经", "QUOTE": "生蓝田，采无时。", "PRECISION": 3, "CLASS": "upper", "HERB": "玉屑", "TYPE": "TRUE", "X": 109.14697, "Y": 34.23927 }, "geometry": { "type": "Point", "coordinates": [ 109.14697, 34.23927 ] } },
{ "type": "Feature", "properties": { "NAME": "符陵山谷", "ID": "hvd_115234", "SOURCE": "神农本草经", "QUOTE": "生符陵山谷，采无时。", "PRECISION": 2, "CLASS": "upper", "HERB": "丹砂", "TYPE": "TRUE", "X": 108.17096, "Y": 29.29206 }, "geometry": { "type": "Point", "coordinates": [ 108.17096, 29.29206 ] } },
{ "type": "Feature", "properties": { "NAME": "武都山谷", "ID": "211791", "SOURCE": "神农本草经", "QUOTE": "生武都山谷，与雄黄同山生。", "PRECISION": 2, "CLASS": "middle", "HERB": "雌黄", "TYPE": "TRUE", "X": 105.655197, "Y": 33.849018 }, "geometry": { "type": "Point", "coordinates": [ 105.655197, 33.849018 ] } },
{ "type": "Feature", "properties": { "NAME": "赵国山谷", "ID": "212381", "SOURCE": "神农本草经", "QUOTE": "生赵国山谷，又梁山及南海，采无时。", "PRECISION": 2, "CLASS": "middle", "HERB": "殷孽", "TYPE": "TRUE", "X": 114.516712, "Y": 36.591012 }, "geometry": { "type": "Point", "coordinates": [ 114.516712, 36.591012 ] } },
{ "type": "Feature", "properties": { "NAME": "梁山", "ID": "70312", "SOURCE": "神农本草经", "QUOTE": "生赵国山谷，又梁山及南海，采无时。", "PRECISION": 4, "CLASS": "middle", "HERB": "殷孽", "TYPE": "TRUE", "X": 110.41963, "Y": 35.39751 }, "geometry": { "type": "Point", "coordinates": [ 110.41963, 35.39751 ] } },
{ "type": "Feature", "properties": { "NAME": "益州山谷", "ID": "hvd_113523", "SOURCE": "神农本草经", "QUOTE": "生益州山谷及 越嶲山有铜处。", "PRECISION": 1, "CLASS": "upper", "HERB": "空青", "TYPE": "TRUE", "X": 104.078, "Y": 30.65039 }, "geometry": { "type": "Point", "coordinates": [ 104.078, 30.65039 ] } },
{ "type": "Feature", "properties": { "NAME": "南海", "ID": "34191", "SOURCE": "神农本草经", "QUOTE": "生赵国山谷，又梁山及南海，采无时。", "PRECISION": 2, "CLASS": "middle", "HERB": "殷孽", "TYPE": "TRUE", "X": 113.256066, "Y": 23.134624 }, "geometry": { "type": "Point", "coordinates": [ 113.256066, 23.134624 ] } },
{ "type": "Feature", "properties": { "NAME": "越嶲山有铜处", "ID": "hvd_116149", "SOURCE": "神农本草经", "QUOTE": "生益州山谷及 越嶲山有铜处。", "PRECISION": 2, "CLASS": "upper", "HERB": "空青", "TYPE": "TRUE", "X": 102.26695, "Y": 27.89982 }, "geometry": { "type": "Point", "coordinates": [ 102.26695, 27.89982 ] } },
{ "type": "Feature", "properties": { "NAME": "梁山山谷", "ID": "70312", "SOURCE": "神农本草经", "QUOTE": "生梁山山谷。", "PRECISION": 4, "CLASS": "middle", "HERB": "孔公孽", "TYPE": "TRUE", "X": 110.41963, "Y": 35.39751 }, "geometry": { "type": "Point", "coordinates": [ 110.41963, 35.39751 ] } },
{ "type": "Feature", "properties": { "NAME": "蜀中山谷", "ID": "hvd_115804", "SOURCE": "神农本草经", "QUOTE": "生蜀中山谷及越嶲，采无时。", "PRECISION": 2, "CLASS": "upper", "HERB": "曾青", "TYPE": "TRUE", "X": 104.078, "Y": 30.65039 }, "geometry": { "type": "Point", "coordinates": [ 104.078, 30.65039 ] } },
{ "type": "Feature", "properties": { "NAME": "东海牧羊山谷", "ID": "212614", "SOURCE": "神农本草经", "QUOTE": "生东海牧羊山谷中，及太山、河西山，矾石液也。", "PRECISION": 4, "CLASS": "middle", "HERB": "石硫黄", "TYPE": "TRUE", "X": 118.340384, "Y": 34.636984 }, "geometry": { "type": "Point", "coordinates": [ 118.340384, 34.636984 ] } },
{ "type": "Feature", "properties": { "NAME": "越嶲", "ID": "hvd_116149", "SOURCE": "神农本草经", "QUOTE": "生蜀中山谷及越嶲，采无时。", "PRECISION": 2, "CLASS": "upper", "HERB": "曾青", "TYPE": "TRUE", "X": 102.26695, "Y": 27.89982 }, "geometry": { "type": "Point", "coordinates": [ 102.26695, 27.89982 ] } },
{ "type": "Feature", "properties": { "NAME": "太山", "ID": "taishan", "SOURCE": "神农本草经", "QUOTE": "生东海牧羊山谷中，及太山、河西山，矾石液也。", "PRECISION": 4, "CLASS": "middle", "HERB": "石硫黄", "TYPE": "TRUE", "X": 117.103175, "Y": 36.2569183 }, "geometry": { "type": "Point", "coordinates": [ 117.103175, 36.2569183 ] } },
{ "type": "Feature", "properties": { "NAME": "河西山", "ID": "hexi", "SOURCE": "神农本草经", "QUOTE": "生东海牧羊山谷中，及太山、河西山，矾石液也。", "PRECISION": 1, "CLASS": "middle", "HERB": "石硫黄", "TYPE": "TRUE", "X": 101.5818192, "Y": 35.3002082 }, "geometry": { "type": "Point", "coordinates": [ 101.5818192, 35.3002082 ] } },
{ "type": "Feature", "properties": { "NAME": "豫章山谷", "ID": "hvd_32583", "SOURCE": "神农本草经", "QUOTE": "生豫章山谷，采无时。", "PRECISION": 2, "CLASS": "upper", "HERB": "白青", "TYPE": "TRUE", "X": 115.89772, "Y": 28.6749 }, "geometry": { "type": "Point", "coordinates": [ 115.89772, 28.6749 ] } },
{ "type": "Feature", "properties": { "NAME": "朱崖山谷武都", "ID": "hvd_34243", "SOURCE": "神农本草经", "QUOTE": "生朱崖山谷武都、朱提，采无时。", "PRECISION": 2, "CLASS": "upper", "HERB": "扁青", "TYPE": "TRUE", "X": 110.15652, "Y": 20.26113 }, "geometry": { "type": "Point", "coordinates": [ 110.15652, 20.26113 ] } },
{ "type": "Feature", "properties": { "NAME": "朱提", "ID": "hvd_112822", "SOURCE": "神农本草经", "QUOTE": "生朱崖山谷武都、朱提，采无时。", "PRECISION": 2, "CLASS": "upper", "HERB": "扁青", "TYPE": "TRUE", "X": 103.71526, "Y": 27.34327 }, "geometry": { "type": "Point", "coordinates": [ 103.71526, 27.34327 ] } },
{ "type": "Feature", "properties": { "NAME": "齐山山谷", "ID": "45022", "SOURCE": "神农本草经", "QUOTE": "生齐山山谷及琅玡或云山、阳起山，采无时。", "PRECISION": 4, "CLASS": "middle", "HERB": "阳起石", "TYPE": "TRUE", "X": 117.00031, "Y": 36.64912 }, "geometry": { "type": "Point", "coordinates": [ 117.00031, 36.64912 ] } },
{ "type": "Feature", "properties": { "NAME": "琅玡", "ID": "hvd_115519", "SOURCE": "神农本草经", "QUOTE": "生齐山山谷及琅玡或云山、阳起山，采无时。", "PRECISION": 2, "CLASS": "middle", "HERB": "阳起石", "TYPE": "TRUE", "X": 118.38945, "Y": 35.1538 }, "geometry": { "type": "Point", "coordinates": [ 118.38945, 35.1538 ] } },
{ "type": "Feature", "properties": { "NAME": "云山", "ID": "45022", "SOURCE": "神农本草经", "QUOTE": "生齐山山谷及琅玡或云山、阳起山，采无时。", "PRECISION": 1, "CLASS": "middle", "HERB": "阳起石", "TYPE": "TRUE", "X": 117.00031, "Y": 36.64912 }, "geometry": { "type": "Point", "coordinates": [ 117.00031, 36.64912 ] } },
{ "type": "Feature", "properties": { "NAME": "阳起山", "ID": "yangqishan", "SOURCE": "神农本草经", "QUOTE": "生齐山山谷及琅玡或云山、阳起山，采无时。", "PRECISION": 4, "CLASS": "middle", "HERB": "阳起石", "TYPE": "TRUE", "X": 116.8743628, "Y": 36.6115209 }, "geometry": { "type": "Point", "coordinates": [ 116.8743628, 36.6115209 ] } },
{ "type": "Feature", "properties": { "NAME": "常山山谷", "ID": "changshan", "SOURCE": "神农本草经", "QUOTE": "生常山山谷，又中水县及邯郸。", "PRECISION": 4, "CLASS": "middle", "HERB": "凝水石", "TYPE": "TRUE", "X": 114.461205, "Y": 39.0580325 }, "geometry": { "type": "Point", "coordinates": [ 114.461205, 39.0580325 ] } },
{ "type": "Feature", "properties": { "NAME": "羌道山谷羌里句青山", "ID": "qiangdao", "SOURCE": "神农本草经", "QUOTE": "生羌道山谷羌里句青山。", "PRECISION": 4, "CLASS": "upper", "HERB": "石胆", "TYPE": "TRUE", "X": 104.28436, "Y": 33.62903 }, "geometry": { "type": "Point", "coordinates": [ 104.28436, 33.62903 ] } },
{ "type": "Feature", "properties": { "NAME": "中水县", "ID": "87356", "SOURCE": "神农本草经", "QUOTE": "生常山山谷，又中水县及邯郸。", "PRECISION": 3, "CLASS": "middle", "HERB": "凝水石", "TYPE": "TRUE", "X": 115.94853, "Y": 38.22616 }, "geometry": { "type": "Point", "coordinates": [ 115.94853, 38.22616 ] } },
{ "type": "Feature", "properties": { "NAME": "邯郸", "ID": "87010", "SOURCE": "神农本草经", "QUOTE": "生常山山谷，又中水县及邯郸。", "PRECISION": 2, "CLASS": "middle", "HERB": "凝水石", "TYPE": "TRUE", "X": 114.47204, "Y": 36.59347 }, "geometry": { "type": "Point", "coordinates": [ 114.47204, 36.59347 ] } },
{ "type": "Feature", "properties": { "NAME": "太山山谷", "ID": "taishan", "SOURCE": "神农本草经", "QUOTE": "生太山山谷齐、庐山，及琅邪北定山石间，二月采。", "PRECISION": 4, "CLASS": "upper", "HERB": "云母", "TYPE": "TRUE", "X": 117.103175, "Y": 36.2569183 }, "geometry": { "type": "Point", "coordinates": [ 117.103175, 36.2569183 ] } },
{ "type": "Feature", "properties": { "NAME": "齐", "ID": "45022", "SOURCE": "神农本草经", "QUOTE": "生太山山谷齐、庐山，及琅邪北定山石间，二月采。", "PRECISION": 4, "CLASS": "upper", "HERB": "云母", "TYPE": "TRUE", "X": null, "Y": null }, "geometry": null },
{ "type": "Feature", "properties": { "NAME": "庐山", "ID": "lushan", "SOURCE": "神农本草经", "QUOTE": "生太山山谷齐、庐山，及琅邪北定山石间，二月采。", "PRECISION": 4, "CLASS": "upper", "HERB": "云母", "TYPE": "TRUE", "X": 115.973333, "Y": 29.5725 }, "geometry": { "type": "Point", "coordinates": [ 115.973333, 29.5725 ] } },
{ "type": "Feature", "properties": { "NAME": "琅邪北定山", "ID": "hvd_115519", "SOURCE": "神农本草经", "QUOTE": "生太山山谷齐、庐山，及琅邪北定山石间，二月采。", "PRECISION": 4, "CLASS": "upper", "HERB": "云母", "TYPE": "TRUE", "X": 118.38945, "Y": 35.1538 }, "geometry": { "type": "Point", "coordinates": [ 118.38945, 35.1538 ] } },
{ "type": "Feature", "properties": { "NAME": "齐山山谷", "ID": "45022", "SOURCE": "神农本草经", "QUOTE": "生齐山山谷及齐卢山、鲁蒙山，采无时。", "PRECISION": 4, "CLASS": "middle", "HERB": "石膏", "TYPE": "TRUE", "X": 117.00031, "Y": 36.64912 }, "geometry": { "type": "Point", "coordinates": [ 117.00031, 36.64912 ] } },
{ "type": "Feature", "properties": { "NAME": "齐卢山", "ID": "45022", "SOURCE": "神农本草经", "QUOTE": "生齐山山谷及齐卢山、鲁蒙山，采无时。", "PRECISION": 4, "CLASS": "middle", "HERB": "石膏", "TYPE": "TRUE", "X": 117.00031, "Y": 36.64912 }, "geometry": { "type": "Point", "coordinates": [ 117.00031, 36.64912 ] } },
{ "type": "Feature", "properties": { "NAME": "鲁蒙山", "ID": "mengshan", "SOURCE": "神农本草经", "QUOTE": "生齐山山谷及齐卢山、鲁蒙山，采无时。", "PRECISION": 4, "CLASS": "middle", "HERB": "石膏", "TYPE": "TRUE", "X": 118.0821683, "Y": 35.4741413 }, "geometry": { "type": "Point", "coordinates": [ 118.0821683, 35.4741413 ] } },
{ "type": "Feature", "properties": { "NAME": "少室山谷", "ID": "songshan", "SOURCE": "神农本草经", "QUOTE": "生少室山谷及太山，采无时。", "PRECISION": 4, "CLASS": "upper", "HERB": "石钟乳", "TYPE": "TRUE", "X": 112.9865424, "Y": 34.5196623 }, "geometry": { "type": "Point", "coordinates": [ 112.9865424, 34.5196623 ] } },
{ "type": "Feature", "properties": { "NAME": "太山", "ID": "taishan", "SOURCE": "神农本草经", "QUOTE": "生少室山谷及太山，采无时。", "PRECISION": 4, "CLASS": "upper", "HERB": "石钟乳", "TYPE": "TRUE", "X": 117.103175, "Y": 36.2569183 }, "geometry": { "type": "Point", "coordinates": [ 117.103175, 36.2569183 ] } },
{ "type": "Feature", "properties": { "NAME": "慈山山阴", "ID": "87978", "SOURCE": "神农本草经", "QUOTE": "生大山川谷及慈山山阴，有铁者则生其阳，采无时。", "PRECISION": 4, "CLASS": "middle", "HERB": "磁石", "TYPE": "TRUE", "X": 114.37425, "Y": 36.35904 }, "geometry": { "type": "Point", "coordinates": [ 114.37425, 36.35904 ] } },
{ "type": "Feature", "properties": { "NAME": "太山之阳", "ID": "taishan", "SOURCE": "神农本草经", "QUOTE": "生太山之阳，山阴有铜。", "PRECISION": 4, "CLASS": "middle", "HERB": "玄石", "TYPE": "TRUE", "X": 117.103175, "Y": 36.2569183 }, "geometry": { "type": "Point", "coordinates": [ 117.103175, 36.2569183 ] } },
{ "type": "Feature", "properties": { "NAME": "汉中山谷", "ID": "211672", "SOURCE": "神农本草经", "QUOTE": "生汉中山谷及卢山，采无时。", "PRECISION": 2, "CLASS": "middle", "HERB": "理石", "TYPE": "TRUE", "X": 107.036067, "Y": 33.072893 }, "geometry": { "type": "Point", "coordinates": [ 107.036067, 33.072893 ] } },
{ "type": "Feature", "properties": { "NAME": "卢山", "ID": "45022", "SOURCE": "神农本草经", "QUOTE": "生汉中山谷及卢山，采无时。", "PRECISION": 4, "CLASS": "middle", "HERB": "理石", "TYPE": "TRUE", "X": 117.00031, "Y": 36.64912 }, "geometry": { "type": "Point", "coordinates": [ 117.00031, 36.64912 ] } },
{ "type": "Feature", "properties": { "NAME": "益州山谷有咸水之阳", "ID": "hvd_113523", "SOURCE": "神农本草经", "QUOTE": "生益州山谷有咸水之阳，采无时。", "PRECISION": 1, "CLASS": "upper", "HERB": "朴硝", "TYPE": "TRUE", "X": 104.078, "Y": 30.65039 }, "geometry": { "type": "Point", "coordinates": [ 104.078, 30.65039 ] } }
]
}
