{
"type": "FeatureCollection",
"crs": { "type": "name", "properties": { "name": "urn:ogc:def:crs:OGC:1.3:CRS84" } },
"features": [
{ "type": "Feature", "properties": { "NAME": "蜀郡平泽", "ID": "211047", "SOURCE": "神农本草经", "QUOTE": "生蜀郡平泽，采无时。", "PRECISION": 2, "CLASS": "lower", "HERB": "青琅_", "TYPE": "TRUE", "X": 104.075475, "Y": 30.665916 }, "geometry": { "type": "Point", "coordinates": [ 104.075475, 30.665916 ] } },
{ "type": "Feature", "properties": { "NAME": "_州以西乌白蛮", "ID": "211360", "SOURCE": "新修本草", "QUOTE": "今出_州以西乌白蛮中及于阗国也。", "PRECISION": 2, "CLASS": "lower", "HERB": "青琅_", "TYPE": "TRUE", "X": 102.265554, "Y": 27.891942 }, "geometry": { "type": "Point", "coordinates": [ 102.265554, 27.891942 ] } },
{ "type": "Feature", "properties": { "NAME": "于阗国", "ID": "yutian", "SOURCE": "新修本草", "QUOTE": "今出_州以西乌白蛮中及于阗国也。", "PRECISION": 1, "CLASS": "lower", "HERB": "青琅_", "TYPE": "TRUE", "X": 79.9113453, "Y": 37.1121523 }, "geometry": { "type": "Point", "coordinates": [ 79.9113453, 37.1121523 ] } },
{ "type": "Feature", "properties": { "NAME": "汉中山谷", "ID": "211672", "SOURCE": "神农本草经", "QUOTE": "生汉中山谷及少室，采无时。", "PRECISION": 2, "CLASS": "lower", "HERB": "【兴石】石", "TYPE": "TRUE", "X": 107.036067, "Y": 33.072893 }, "geometry": { "type": "Point", "coordinates": [ 107.036067, 33.072893 ] } },
{ "type": "Feature", "properties": { "NAME": "少室", "ID": "songshan", "SOURCE": "神农本草经", "QUOTE": "生汉中山谷及少室，采无时。", "PRECISION": 4, "CLASS": "lower", "HERB": "【兴石】石", "TYPE": "TRUE", "X": 112.9865424, "Y": 34.5196623 }, "geometry": { "type": "Point", "coordinates": [ 112.9865424, 34.5196623 ] } },
{ "type": "Feature", "properties": { "NAME": "蜀", "ID": "211049", "SOURCE": "神农本草经集注", "QUOTE": "今蜀汉亦有，而好者出南康南野溪，及彭城界中、洛阳城南堑，常取少室。", "PRECISION": 2, "CLASS": "lower", "HERB": "【兴石】石", "TYPE": "TRUE", "X": 104.075475, "Y": 30.665916 }, "geometry": { "type": "Point", "coordinates": [ 104.075475, 30.665916 ] } },
{ "type": "Feature", "properties": { "NAME": "汉", "ID": "211672", "SOURCE": "神农本草经集注", "QUOTE": "今蜀汉亦有，而好者出南康南野溪，及彭城界中、洛阳城南堑，常取少室。", "PRECISION": 2, "CLASS": "lower", "HERB": "【兴石】石", "TYPE": "continue", "X": 107.036067, "Y": 33.072893 }, "geometry": { "type": "Point", "coordinates": [ 107.036067, 33.072893 ] } },
{ "type": "Feature", "properties": { "NAME": "南康南野溪", "ID": "40872", "SOURCE": "神农本草经集注", "QUOTE": "今蜀汉亦有，而好者出南康南野溪，及彭城界中、洛阳城南堑，常取少室。", "PRECISION": 4, "CLASS": "lower", "HERB": "【兴石】石", "TYPE": "TRUE", "X": 114.745163, "Y": 25.658571 }, "geometry": { "type": "Point", "coordinates": [ 114.745163, 25.658571 ] } },
{ "type": "Feature", "properties": { "NAME": "彭城", "ID": "42777", "SOURCE": "神农本草经集注", "QUOTE": "今蜀汉亦有，而好者出南康南野溪，及彭城界中、洛阳城南堑，常取少室。", "PRECISION": 3, "CLASS": "lower", "HERB": "【兴石】石", "TYPE": "TRUE", "X": 117.187683, "Y": 34.269634 }, "geometry": { "type": "Point", "coordinates": [ 117.187683, 34.269634 ] } },
{ "type": "Feature", "properties": { "NAME": "洛阳城南堑", "ID": "82829", "SOURCE": "神农本草经集注", "QUOTE": "今蜀汉亦有，而好者出南康南野溪，及彭城界中、洛阳城南堑，常取少室。", "PRECISION": 4, "CLASS": "lower", "HERB": "【兴石】石", "TYPE": "TRUE", "X": 112.5963, "Y": 34.73157 }, "geometry": { "type": "Point", "coordinates": [ 112.5963, 34.73157 ] } },
{ "type": "Feature", "properties": { "NAME": "少室", "ID": "songshan", "SOURCE": "神农本草经集注", "QUOTE": "今蜀汉亦有，而好者出南康南野溪，及彭城界中、洛阳城南堑，常取少室。", "PRECISION": 4, "CLASS": "lower", "HERB": "【兴石】石", "TYPE": "continue", "X": 112.9865424, "Y": 34.5196623 }, "geometry": { "type": "Point", "coordinates": [ 112.9865424, 34.5196623 ] } },
{ "type": "Feature", "properties": { "NAME": "湘东新宁县", "ID": "41866", "SOURCE": "神农本草经集注", "QUOTE": "又湘东新宁县及零陵皆有白【兴石】石。", "PRECISION": 3, "CLASS": "lower", "HERB": "【兴石】石", "TYPE": "TRUE", "X": 112.339178, "Y": 26.296506 }, "geometry": { "type": "Point", "coordinates": [ 112.339178, 26.296506 ] } },
{ "type": "Feature", "properties": { "NAME": "零陵", "ID": "32886", "SOURCE": "神农本草经集注", "QUOTE": "又湘东新宁县及零陵皆有白【兴石】石。", "PRECISION": 2, "CLASS": "lower", "HERB": "【兴石】石", "TYPE": "TRUE", "X": 111.612564, "Y": 26.210339 }, "geometry": { "type": "Point", "coordinates": [ 111.612564, 26.210339 ] } },
{ "type": "Feature", "properties": { "NAME": "汉川武当西辽坂", "ID": "212436", "SOURCE": "新修本草", "QUOTE": "今汉川武当西辽坂名【兴石】石谷，此即是其真出处。", "PRECISION": 2, "CLASS": "lower", "HERB": "【兴石】石", "TYPE": "continue", "X": 107.08756, "Y": 33.02875 }, "geometry": { "type": "Point", "coordinates": [ 107.08756, 33.02875 ] } },
{ "type": "Feature", "properties": { "NAME": "少室", "ID": "songshan", "SOURCE": "新修本草", "QUOTE": "少室亦有，粒理细，不如汉中者。", "PRECISION": 4, "CLASS": "lower", "HERB": "【兴石】石", "TYPE": "continue", "X": 112.9865424, "Y": 34.5196623 }, "geometry": { "type": "Point", "coordinates": [ 112.9865424, 34.5196623 ] } },
{ "type": "Feature", "properties": { "NAME": "西城", "ID": "200069", "SOURCE": "神农本草经", "QUOTE": "生西城，采无时。", "PRECISION": 3, "CLASS": "lower", "HERB": "特【兴石】石", "TYPE": "TRUE", "X": 109.01698, "Y": 32.70456 }, "geometry": { "type": "Point", "coordinates": [ 109.01698, 32.70456 ] } },
{ "type": "Feature", "properties": { "NAME": "汉中", "ID": "211677", "SOURCE": "神农本草经集注", "QUOTE": "唯用出汉中者，其外形紫赤色，内白如霜，中央有臼，形状如齿者佳。", "PRECISION": 2, "CLASS": "lower", "HERB": "特【兴石】石", "TYPE": "TRUE", "X": 107.036067, "Y": 33.072893 }, "geometry": { "type": "Point", "coordinates": [ 107.036067, 33.072893 ] } },
{ "type": "Feature", "properties": { "NAME": "荆州新城郡房陵县", "ID": "45921", "SOURCE": "神农本草经集注", "QUOTE": "《大散方》云∶出荆州新城郡房陵县，练白色为好。", "PRECISION": 3, "CLASS": "lower", "HERB": "特【兴石】石", "TYPE": "TRUE", "X": 110.72715, "Y": 32.05897 }, "geometry": { "type": "Point", "coordinates": [ 110.72715, 32.05897 ] } },
{ "type": "Feature", "properties": { "NAME": "徐州西宗里山", "ID": "33439", "SOURCE": "新修本草", "QUOTE": "出徐州西宗里山。", "PRECISION": 4, "CLASS": "lower", "HERB": "握雪石", "TYPE": "TRUE", "X": 117.187683, "Y": 34.269634 }, "geometry": { "type": "Point", "coordinates": [ 117.187683, 34.269634 ] } },
{ "type": "Feature", "properties": { "NAME": "西城", "ID": "200069", "SOURCE": "神农本草经", "QUOTE": "生西城，采无时。", "PRECISION": 3, "CLASS": "lower", "HERB": "苍石", "TYPE": "TRUE", "X": 109.01698, "Y": 32.70456 }, "geometry": { "type": "Point", "coordinates": [ 109.01698, 32.70456 ] } },
{ "type": "Feature", "properties": { "NAME": "梁州", "ID": "212517", "SOURCE": "新修本草", "QUOTE": "而梁州时生，亦有青者。", "PRECISION": 2, "CLASS": "lower", "HERB": "苍石", "TYPE": "TRUE", "X": 107.04581, "Y": 33.07615 }, "geometry": { "type": "Point", "coordinates": [ 107.04581, 33.07615 ] } },
{ "type": "Feature", "properties": { "NAME": "防陵", "ID": "45924", "SOURCE": "新修本草", "QUOTE": "今防陵、汉川与白【兴石】石同处，有色青者，并毒杀禽兽，与石同。", "PRECISION": 3, "CLASS": "lower", "HERB": "苍石", "TYPE": "TRUE", "X": 110.72715, "Y": 32.05897 }, "geometry": { "type": "Point", "coordinates": [ 110.72715, 32.05897 ] } },
{ "type": "Feature", "properties": { "NAME": "汉川", "ID": "212436", "SOURCE": "新修本草", "QUOTE": "今防陵、汉川与白【兴石】石同处，有色青者，并毒杀禽兽，与石同。", "PRECISION": 2, "CLASS": "lower", "HERB": "苍石", "TYPE": "TRUE", "X": 107.08756, "Y": 33.02875 }, "geometry": { "type": "Point", "coordinates": [ 107.08756, 33.02875 ] } },
{ "type": "Feature", "properties": { "NAME": "均州", "ID": "34492", "SOURCE": "新修本草", "QUOTE": "此石出梁州、均州、房州，与二石同处，特生、苍石并生西城，在汉川金州是也。\"", "PRECISION": 2, "CLASS": "lower", "HERB": "苍石", "TYPE": "TRUE", "X": 111.16557, "Y": 32.668153 }, "geometry": { "type": "Point", "coordinates": [ 111.16557, 32.668153 ] } },
{ "type": "Feature", "properties": { "NAME": "房州", "ID": "34484", "SOURCE": "新修本草", "QUOTE": "此石出梁州、均州、房州，与二石同处，特生、苍石并生西城，在汉川金州是也。\"", "PRECISION": 2, "CLASS": "lower", "HERB": "苍石", "TYPE": "TRUE", "X": 110.72715, "Y": 32.058971 }, "geometry": { "type": "Point", "coordinates": [ 110.72715, 32.058971 ] } },
{ "type": "Feature", "properties": { "NAME": "渭州鄣县三交驿西北坡平地土窟", "ID": "70029", "SOURCE": "新修本草", "QUOTE": "出渭州鄣县三交驿西北坡平地土窟中，见有六十余坎昔人采处。土人云∶服陶及《本经》俱云在崖上，此说非也。今渭州不复采用也。", "PRECISION": 4, "CLASS": "lower", "HERB": "土殷孽", "TYPE": "abandon", "X": 104.4497, "Y": 34.83723 }, "geometry": { "type": "Point", "coordinates": [ 104.4497, 34.83723 ] } },
{ "type": "Feature", "properties": { "NAME": "齐国山谷", "ID": "210495", "SOURCE": "神农本草经", "QUOTE": "生齐国山谷，赤红青色，如鸡冠有泽，染爪甲不渝者良，采无时。", "PRECISION": 1, "CLASS": "lower", "HERB": "代赭", "TYPE": "TRUE", "X": 118.344592, "Y": 36.851221 }, "geometry": { "type": "Point", "coordinates": [ 118.344592, 36.851221 ] } },
{ "type": "Feature", "properties": { "NAME": "代郡城门下", "ID": "210097", "SOURCE": "神农本草经集注", "QUOTE": "旧说云是代郡城门下土。", "PRECISION": 4, "CLASS": "lower", "HERB": "代赭", "TYPE": "TRUE", "X": 113.296719, "Y": 40.092902 }, "geometry": { "type": "Point", "coordinates": [ 113.296719, 40.092902 ] } },
{ "type": "Feature", "properties": { "NAME": "代州", "ID": "210045", "SOURCE": "新修本草", "QUOTE": "此石多从代州来，云山中采得，非城门下土，又言生齐代山谷。", "PRECISION": 2, "CLASS": "lower", "HERB": "代赭", "TYPE": "TRUE", "X": 112.94936, "Y": 39.060431 }, "geometry": { "type": "Point", "coordinates": [ 112.94936, 39.060431 ] } },
{ "type": "Feature", "properties": { "NAME": "齐州亭山", "ID": "200028", "SOURCE": "新修本草", "QUOTE": "今齐州亭山出赤石，其色有赤红青者。其赤者，亦如鸡冠，且润泽，土人唯采以丹楹柱，而紫色且暗，此物与代州出者相似，古来用之。", "PRECISION": 4, "CLASS": "lower", "HERB": "代赭", "TYPE": "TRUE", "X": 117.41978, "Y": 36.78602 }, "geometry": { "type": "Point", "coordinates": [ 117.41978, 36.78602 ] } },
{ "type": "Feature", "properties": { "NAME": "灵州鸣沙县界河北", "ID": "70539", "SOURCE": "新修本草", "QUOTE": "今灵州鸣沙县界河北，平地掘深四、五尺得者，皮上赤滑，中紫如鸡肝，大胜齐、代所出者", "PRECISION": 4, "CLASS": "lower", "HERB": "代赭", "TYPE": "TRUE", "X": 105.86738, "Y": 37.54892 }, "geometry": { "type": "Point", "coordinates": [ 105.86738, 37.54892 ] } },
{ "type": "Feature", "properties": { "NAME": "河东盐池", "ID": "yanchi", "SOURCE": "神农本草经", "QUOTE": "生河东盐池。", "PRECISION": 4, "CLASS": "lower", "HERB": "卤咸", "TYPE": "TRUE", "X": 111.0076, "Y": 35.0264 }, "geometry": { "type": "Point", "coordinates": [ 111.0076, 35.0264 ] } },
{ "type": "Feature", "properties": { "NAME": "河东", "ID": "yanchi", "SOURCE": "新修本草", "QUOTE": "卤咸即生河东，河东盐不釜煎，明非凝滓也。", "PRECISION": 3, "CLASS": "lower", "HERB": "卤咸", "TYPE": "continue", "X": 111.0076, "Y": 35.0264 }, "geometry": { "type": "Point", "coordinates": [ 111.0076, 35.0264 ] } },
{ "type": "Feature", "properties": { "NAME": "邯郸", "ID": "87010", "SOURCE": "神农本草经", "QUOTE": "生邯郸及河东池泽。", "PRECISION": 3, "CLASS": "lower", "HERB": "大盐", "TYPE": "TRUE", "X": 114.47204, "Y": 36.59347 }, "geometry": { "type": "Point", "coordinates": [ 114.47204, 36.59347 ] } },
{ "type": "Feature", "properties": { "NAME": "河东池泽", "ID": "yanchi", "SOURCE": "神农本草经", "QUOTE": "生邯郸及河东池泽。", "PRECISION": 4, "CLASS": "lower", "HERB": "大盐", "TYPE": "TRUE", "X": 111.0076, "Y": 35.0264 }, "geometry": { "type": "Point", "coordinates": [ 111.0076, 35.0264 ] } },
{ "type": "Feature", "properties": { "NAME": "西羌北地", "ID": "qiangdao", "SOURCE": "神农本草经", "QUOTE": "一名胡盐，生胡盐山，及西羌北地，及酒泉福禄城东南角。", "PRECISION": 1, "CLASS": "lower", "HERB": "戎盐", "TYPE": "TRUE", "X": 104.28436, "Y": 33.62903 }, "geometry": { "type": "Point", "coordinates": [ 104.28436, 33.62903 ] } },
{ "type": "Feature", "properties": { "NAME": "酒泉福禄城东南角", "ID": "211885", "SOURCE": "神农本草经", "QUOTE": "一名胡盐，生胡盐山，及西羌北地，及酒泉福禄城东南角。", "PRECISION": 4, "CLASS": "lower", "HERB": "戎盐", "TYPE": "TRUE", "X": 98.510691, "Y": 39.743699 }, "geometry": { "type": "Point", "coordinates": [ 98.510691, 39.743699 ] } },
{ "type": "Feature", "properties": { "NAME": "北海", "ID": "210521", "SOURCE": "神农本草经", "QUOTE": "北海青，南海赤。十月采。", "PRECISION": 2, "CLASS": "lower", "HERB": "戎盐", "TYPE": "TRUE", "X": 118.88799, "Y": 36.630444 }, "geometry": { "type": "Point", "coordinates": [ 118.88799, 36.630444 ] } },
{ "type": "Feature", "properties": { "NAME": "南海", "ID": "34191", "SOURCE": "神农本草经", "QUOTE": "北海青，南海赤。十月采。", "PRECISION": 2, "CLASS": "lower", "HERB": "戎盐", "TYPE": "TRUE", "X": 113.256066, "Y": 23.134624 }, "geometry": { "type": "Point", "coordinates": [ 113.256066, 23.134624 ] } },
{ "type": "Feature", "properties": { "NAME": "河东", "ID": "yanchi", "SOURCE": "神农本草经集注", "QUOTE": "今俗中不复见卤咸，唯魏国所献虏盐，即是河东大盐，形如结冰圆强，味咸、苦，夏月小润液。", "PRECISION": 2, "CLASS": "lower", "HERB": "戎盐", "TYPE": "TRUE", "X": 111.0076, "Y": 35.0264 }, "geometry": { "type": "Point", "coordinates": [ 111.0076, 35.0264 ] } },
{ "type": "Feature", "properties": { "NAME": "凉州", "ID": "211829", "SOURCE": "神农本草经集注", "QUOTE": "今戎盐虏中甚有，从凉州来，芮芮河南使及北部胡客从敦煌来，亦得之，自是希少尔。", "PRECISION": 1, "CLASS": "lower", "HERB": "戎盐", "TYPE": "TRUE", "X": 102.632404, "Y": 37.92674 }, "geometry": { "type": "Point", "coordinates": [ 102.632404, 37.92674 ] } },
{ "type": "Feature", "properties": { "NAME": "敦煌", "ID": "70594", "SOURCE": "神农本草经集注", "QUOTE": "今戎盐虏中甚有，从凉州来，芮芮河南使及北部胡客从敦煌来，亦得之，自是希少尔。", "PRECISION": 3, "CLASS": "lower", "HERB": "戎盐", "TYPE": "TRUE", "X": 94.62009, "Y": 40.13911 }, "geometry": { "type": "Point", "coordinates": [ 94.62009, 40.13911 ] } },
{ "type": "Feature", "properties": { "NAME": "河南盐池", "ID": "henanyanchi", "SOURCE": "神农本草经集注", "QUOTE": "又河南盐池泥中，自有凝盐如石片，打破皆方，青黑色，善疗马脊疮，又疑此或者。", "PRECISION": 1, "CLASS": "lower", "HERB": "戎盐", "TYPE": "TRUE", "X": 106.5453447, "Y": 37.6219155 }, "geometry": { "type": "Point", "coordinates": [ 106.5453447, 37.6219155 ] } },
{ "type": "Feature", "properties": { "NAME": "巴东朐忍县北岸", "ID": "44496", "SOURCE": "神农本草经集注", "QUOTE": "又巴东朐忍县北岸有盐井，盐水自凝生粥子盐，方一、二寸，中央突张如伞形，亦有方如石膏、博棋者。", "PRECISION": 4, "CLASS": "lower", "HERB": "戎盐", "TYPE": "TRUE", "X": 108.74291, "Y": 30.93095 }, "geometry": { "type": "Point", "coordinates": [ 108.74291, 30.93095 ] } },
{ "type": "Feature", "properties": { "NAME": "北海", "ID": "210521", "SOURCE": "神农本草经集注", "QUOTE": "北海者青，南海者紫", "PRECISION": 2, "CLASS": "lower", "HERB": "戎盐", "TYPE": "continue", "X": 118.88799, "Y": 36.630444 }, "geometry": { "type": "Point", "coordinates": [ 118.88799, 36.630444 ] } },
{ "type": "Feature", "properties": { "NAME": "南海", "ID": "34191", "SOURCE": "神农本草经集注", "QUOTE": "北海者青，南海者紫", "PRECISION": 2, "CLASS": "lower", "HERB": "戎盐", "TYPE": "continue", "X": 113.256066, "Y": 23.134624 }, "geometry": { "type": "Point", "coordinates": [ 113.256066, 23.134624 ] } },
{ "type": "Feature", "properties": { "NAME": "沙州", "ID": "211897", "SOURCE": "新修本草", "QUOTE": "沙州名为秃登盐，廊州名为阴土盐，生河岸山坡之阴土石间，块大小不常，坚白似石，烧之不鸣【火乇】者。", "PRECISION": 2, "CLASS": "lower", "HERB": "戎盐", "TYPE": "continue", "X": 94.524344, "Y": 40.052387 }, "geometry": { "type": "Point", "coordinates": [ 94.524344, 40.052387 ] } },
{ "type": "Feature", "properties": { "NAME": "廊州", "ID": "langzhou", "SOURCE": "新修本草", "QUOTE": "沙州名为秃登盐，廊州名为阴土盐，生河岸山坡之阴土石间，块大小不常，坚白似石，烧之不鸣【火乇】者。", "PRECISION": 2, "CLASS": "lower", "HERB": "戎盐", "TYPE": "TRUE", "X": 113.3995382, "Y": 39.6225148 }, "geometry": { "type": "Point", "coordinates": [ 113.3995382, 39.6225148 ] } }
]
}
