{
"type": "FeatureCollection",
"crs": { "type": "name", "properties": { "name": "urn:ogc:def:crs:OGC:1.3:CRS84" } },
"features": [
{ "type": "Feature", "properties": { "NAME": "益州", "ID": "211050", "SOURCE": "神农本草经", "QUOTE": "生益州，采无时。", "PRECISION": 1, "CLASS": "middle", "HERB": "金屑", "TYPE": "TRUE", "X": 104.286183, "Y": 30.994009 }, "geometry": { "type": "Point", "coordinates": [ 104.286183, 30.994009 ] } },
{ "type": "Feature", "properties": { "NAME": "梁", "ID": "211675", "SOURCE": "神农本草经集注", "QUOTE": "金之所生，处处皆有，梁、益、宁三州及建晋多有，出水沙中，作屑，谓之生金。", "PRECISION": 2, "CLASS": "middle", "HERB": "金屑", "TYPE": "TRUE", "X": 107.036067, "Y": 33.072893 }, "geometry": { "type": "Point", "coordinates": [ 107.036067, 33.072893 ] } },
{ "type": "Feature", "properties": { "NAME": "益", "ID": "211052", "SOURCE": "神农本草经集注", "QUOTE": "金之所生，处处皆有，梁、益、宁三州及建晋多有，出水沙中，作屑，谓之生金。", "PRECISION": 2, "CLASS": "middle", "HERB": "金屑", "TYPE": "continue", "X": 104.075475, "Y": 30.665916 }, "geometry": { "type": "Point", "coordinates": [ 104.075475, 30.665916 ] } },
{ "type": "Feature", "properties": { "NAME": "宁", "ID": "212019", "SOURCE": "神农本草经集注", "QUOTE": "金之所生，处处皆有，梁、益、宁三州及建晋多有，出水沙中，作屑，谓之生金。", "PRECISION": 2, "CLASS": "middle", "HERB": "金屑", "TYPE": "TRUE", "X": 103.664215, "Y": 25.031117 }, "geometry": { "type": "Point", "coordinates": [ 103.664215, 25.031117 ] } },
{ "type": "Feature", "properties": { "NAME": "建", "ID": "210244", "SOURCE": "神农本草经集注", "QUOTE": "金之所生，处处皆有，梁、益、宁三州及建晋多有，出水沙中，作屑，谓之生金。", "PRECISION": 2, "CLASS": "middle", "HERB": "金屑", "TYPE": "TRUE", "X": 112.953567, "Y": 35.592229 }, "geometry": { "type": "Point", "coordinates": [ 112.953567, 35.592229 ] } },
{ "type": "Feature", "properties": { "NAME": "晋", "ID": "210198", "SOURCE": "神农本草经集注", "QUOTE": "金之所生，处处皆有，梁、益、宁三州及建晋多有，出水沙中，作屑，谓之生金。", "PRECISION": 2, "CLASS": "middle", "HERB": "金屑", "TYPE": "TRUE", "X": 111.5157, "Y": 36.078009 }, "geometry": { "type": "Point", "coordinates": [ 111.5157, 36.078009 ] } },
{ "type": "Feature", "properties": { "NAME": "高丽", "ID": "gaoli", "SOURCE": "神农本草经集注", "QUOTE": "又高丽、扶南及西域外国成器，金皆炼熟可服。", "PRECISION": 1, "CLASS": "middle", "HERB": "金屑", "TYPE": "TRUE", "X": 125.75432, "Y": 39.03385 }, "geometry": { "type": "Point", "coordinates": [ 125.75432, 39.03385 ] } },
{ "type": "Feature", "properties": { "NAME": "扶南", "ID": "funan", "SOURCE": "神农本草经集注", "QUOTE": "又高丽、扶南及西域外国成器，金皆炼熟可服。", "PRECISION": 1, "CLASS": "middle", "HERB": "金屑", "TYPE": "TRUE", "X": 105.28134, "Y": 11.31922 }, "geometry": { "type": "Point", "coordinates": [ 105.28134, 11.31922 ] } },
{ "type": "Feature", "properties": { "NAME": "西域", "ID": "xiyu", "SOURCE": "神农本草经集注", "QUOTE": "又高丽、扶南及西域外国成器，金皆炼熟可服。", "PRECISION": 1, "CLASS": "middle", "HERB": "金屑", "TYPE": "TRUE", "X": 89.5297193, "Y": 42.8597159 }, "geometry": { "type": "Point", "coordinates": [ 89.5297193, 42.8597159 ] } },
{ "type": "Feature", "properties": { "NAME": "永昌", "ID": "211954", "SOURCE": "神农本草经", "QUOTE": "生永昌，采无时。", "PRECISION": 2, "CLASS": "middle", "HERB": "银屑", "TYPE": "TRUE", "X": 99.25789, "Y": 25.15477 }, "geometry": { "type": "Point", "coordinates": [ 99.25789, 25.15477 ] } },
{ "type": "Feature", "properties": { "NAME": "虢州", "ID": "210917", "SOURCE": "新修本草", "QUOTE": "且银所在皆有，而以虢州者为胜，此外多锡秽为劣。", "PRECISION": 2, "CLASS": "middle", "HERB": "银屑", "TYPE": "TRUE", "X": 110.868491, "Y": 34.520825 }, "geometry": { "type": "Point", "coordinates": [ 110.868491, 34.520825 ] } },
{ "type": "Feature", "properties": { "NAME": "高丽", "ID": "gaoli", "SOURCE": "新修本草", "QUOTE": "高丽作帖者，云非银矿所出，然色为器辟恶，乃为瑞物也。", "PRECISION": 1, "CLASS": "middle", "HERB": "银屑", "TYPE": "TRUE", "X": 125.75432, "Y": 39.03385 }, "geometry": { "type": "Point", "coordinates": [ 125.75432, 39.03385 ] } },
{ "type": "Feature", "properties": { "NAME": "符陵平土", "ID": "211010", "SOURCE": "神农本草经", "QUOTE": "生符陵平土，出于丹砂。", "PRECISION": 2, "CLASS": "middle", "HERB": "水银", "TYPE": "TRUE", "X": 108.160143, "Y": 29.294335 }, "geometry": { "type": "Point", "coordinates": [ 108.160143, 29.294335 ] } },
{ "type": "Feature", "properties": { "NAME": "符陵平土", "ID": "211010", "SOURCE": "神农本草经集注", "QUOTE": "此云生符陵平土者，是出朱砂腹中，亦别出沙地，皆青白色，最胜。", "PRECISION": 2, "CLASS": "middle", "HERB": "水银", "TYPE": "continue", "X": 108.160143, "Y": 29.294335 }, "geometry": { "type": "Point", "coordinates": [ 108.160143, 29.294335 ] } },
{ "type": "Feature", "properties": { "NAME": "武都山谷", "ID": "211791", "SOURCE": "神农本草经", "QUOTE": "生武都山谷、敦煌山之阳，采无时。", "PRECISION": 2, "CLASS": "middle", "HERB": "雄黄", "TYPE": "TRUE", "X": 105.655197, "Y": 33.849018 }, "geometry": { "type": "Point", "coordinates": [ 105.655197, 33.849018 ] } },
{ "type": "Feature", "properties": { "NAME": "敦煌山之阳", "ID": "211893", "SOURCE": "神农本草经", "QUOTE": "生武都山谷、敦煌山之阳，采无时。", "PRECISION": 2, "CLASS": "middle", "HERB": "雄黄", "TYPE": "TRUE", "X": 94.524344, "Y": 40.052387 }, "geometry": { "type": "Point", "coordinates": [ 94.524344, 40.052387 ] } },
{ "type": "Feature", "properties": { "NAME": "石门", "ID": "211792", "SOURCE": "神农本草经集注", "QUOTE": "合丸皆用石门、始兴石黄之好者尔。", "PRECISION": 3, "CLASS": "middle", "HERB": "雄黄", "TYPE": "TRUE", "X": 104.945609, "Y": 33.380013 }, "geometry": { "type": "Point", "coordinates": [ 104.945609, 33.380013 ] } },
{ "type": "Feature", "properties": { "NAME": "始兴", "ID": "34176", "SOURCE": "神农本草经集注", "QUOTE": "合丸皆用石门、始兴石黄之好者尔。", "PRECISION": 2, "CLASS": "middle", "HERB": "雄黄", "TYPE": "TRUE", "X": 113.603417, "Y": 24.810209 }, "geometry": { "type": "Point", "coordinates": [ 113.603417, 24.810209 ] } },
{ "type": "Feature", "properties": { "NAME": "凉州平市", "ID": "211829", "SOURCE": "神农本草经集注", "QUOTE": "始以齐初凉州平市微有所得，将至都下，余最先见于使人陈典签处，捡获见十余片，伊芳辈不识此物是何等，见有【扌羡】挟雌黄，或谓是丹砂，五禾语并更属觅，于是渐渐而来，好者作鸡冠色，不臭而坚实。", "PRECISION": 2, "CLASS": "middle", "HERB": "雄黄", "TYPE": "TRUE", "X": 102.632404, "Y": 37.92674 }, "geometry": { "type": "Point", "coordinates": [ 102.632404, 37.92674 ] } },
{ "type": "Feature", "properties": { "NAME": "武都", "ID": "211791", "SOURCE": "神农本草经集注", "QUOTE": "武都、氐羌是为仇池。宕昌亦有，与仇池正同而小劣。", "PRECISION": 2, "CLASS": "middle", "HERB": "雄黄", "TYPE": "continue", "X": 105.655197, "Y": 33.849018 }, "geometry": { "type": "Point", "coordinates": [ 105.655197, 33.849018 ] } },
{ "type": "Feature", "properties": { "NAME": "仇池", "ID": "71125", "SOURCE": "神农本草经集注", "QUOTE": "武都、氐羌是为仇池。宕昌亦有，与仇池正同而小劣。", "PRECISION": 3, "CLASS": "middle", "HERB": "雄黄", "TYPE": "TRUE", "X": 105.78284, "Y": 33.78718 }, "geometry": { "type": "Point", "coordinates": [ 105.78284, 33.78718 ] } },
{ "type": "Feature", "properties": { "NAME": "宕昌", "ID": "212422", "SOURCE": "神农本草经集注", "QUOTE": "武都、氐羌是为仇池。宕昌亦有，与仇池正同而小劣。", "PRECISION": 2, "CLASS": "middle", "HERB": "雄黄", "TYPE": "TRUE", "X": 104.637478, "Y": 33.963106 }, "geometry": { "type": "Point", "coordinates": [ 104.637478, 33.963106 ] } },
{ "type": "Feature", "properties": { "NAME": "敦煌", "ID": "211893", "SOURCE": "神农本草经集注", "QUOTE": "敦煌在凉州西数千里，所出者未尝得来，江东不知，当复云何？", "PRECISION": 2, "CLASS": "middle", "HERB": "雄黄", "TYPE": "abandon", "X": 94.524344, "Y": 40.052387 }, "geometry": { "type": "Point", "coordinates": [ 94.524344, 40.052387 ] } },
{ "type": "Feature", "properties": { "NAME": "石门", "ID": "211792", "SOURCE": "新修本草", "QUOTE": "出石门名石黄者，亦是雄黄，而通名黄食石。", "PRECISION": 3, "CLASS": "middle", "HERB": "雄黄", "TYPE": "continue", "X": 104.945609, "Y": 33.380013 }, "geometry": { "type": "Point", "coordinates": [ 104.945609, 33.380013 ] } },
{ "type": "Feature", "properties": { "NAME": "宕昌", "ID": "212422", "SOURCE": "新修本草", "QUOTE": "而石门者最为劣耳，宕昌、武都者为佳，块方数寸，明澈如鸡冠，或以为枕，服之辟恶。", "PRECISION": 2, "CLASS": "middle", "HERB": "雄黄", "TYPE": "continue", "X": 104.637478, "Y": 33.963106 }, "geometry": { "type": "Point", "coordinates": [ 104.637478, 33.963106 ] } },
{ "type": "Feature", "properties": { "NAME": "武都", "ID": "211791", "SOURCE": "新修本草", "QUOTE": "而石门者最为劣耳，宕昌、武都者为佳，块方数寸，明澈如鸡冠，或以为枕，服之辟恶。", "PRECISION": 2, "CLASS": "middle", "HERB": "雄黄", "TYPE": "continue", "X": 105.655197, "Y": 33.849018 }, "geometry": { "type": "Point", "coordinates": [ 105.655197, 33.849018 ] } },
{ "type": "Feature", "properties": { "NAME": "宕州", "ID": "211609", "SOURCE": "新修本草", "QUOTE": "贞观年中，以宕州新出，有得方数尺者，但重脆，不可全致之耳。", "PRECISION": 2, "CLASS": "middle", "HERB": "雄黄", "TYPE": "TRUE", "X": 104.28535, "Y": 33.79811 }, "geometry": { "type": "Point", "coordinates": [ 104.28535, 33.79811 ] } },
{ "type": "Feature", "properties": { "NAME": "武都山谷", "ID": "211791", "SOURCE": "神农本草经", "QUOTE": "生武都山谷，与雄黄同山生。", "PRECISION": 2, "CLASS": "middle", "HERB": "雌黄", "TYPE": "TRUE", "X": 105.655197, "Y": 33.849018 }, "geometry": { "type": "Point", "coordinates": [ 105.655197, 33.849018 ] } },
{ "type": "Feature", "properties": { "NAME": "武都仇池", "ID": "71125", "SOURCE": "神农本草经集注", "QUOTE": "今雌黄出武都仇池者，谓为武都仇池黄，色小赤。", "PRECISION": 3, "CLASS": "middle", "HERB": "雌黄", "TYPE": "TRUE", "X": 105.78284, "Y": 33.78718 }, "geometry": { "type": "Point", "coordinates": [ 105.78284, 33.78718 ] } },
{ "type": "Feature", "properties": { "NAME": "扶南", "ID": "funan", "SOURCE": "神农本草经集注", "QUOTE": "出扶南林邑者，谓昆仑黄，色如金，而似云母甲错，画家所重。", "PRECISION": 1, "CLASS": "middle", "HERB": "雌黄", "TYPE": "TRUE", "X": 105.28134, "Y": 11.31922 }, "geometry": { "type": "Point", "coordinates": [ 105.28134, 11.31922 ] } },
{ "type": "Feature", "properties": { "NAME": "林邑", "ID": "hvd_110173", "SOURCE": "神农本草经集注", "QUOTE": "出扶南林邑者，谓昆仑黄，色如金，而似云母甲错，画家所重。", "PRECISION": 1, "CLASS": "middle", "HERB": "雌黄", "TYPE": "TRUE", "X": 108.2739, "Y": 15.788 }, "geometry": { "type": "Point", "coordinates": [ 108.2739, 15.788 ] } },
{ "type": "Feature", "properties": { "NAME": "赵国山谷", "ID": "212381", "SOURCE": "神农本草经", "QUOTE": "生赵国山谷，又梁山及南海，采无时。", "PRECISION": 2, "CLASS": "middle", "HERB": "殷孽", "TYPE": "TRUE", "X": 114.516712, "Y": 36.591012 }, "geometry": { "type": "Point", "coordinates": [ 114.516712, 36.591012 ] } },
{ "type": "Feature", "properties": { "NAME": "梁山", "ID": "70312", "SOURCE": "神农本草经", "QUOTE": "生赵国山谷，又梁山及南海，采无时。", "PRECISION": 4, "CLASS": "middle", "HERB": "殷孽", "TYPE": "TRUE", "X": 110.41963, "Y": 35.39751 }, "geometry": { "type": "Point", "coordinates": [ 110.41963, 35.39751 ] } },
{ "type": "Feature", "properties": { "NAME": "南海", "ID": "34191", "SOURCE": "神农本草经", "QUOTE": "生赵国山谷，又梁山及南海，采无时。", "PRECISION": 2, "CLASS": "middle", "HERB": "殷孽", "TYPE": "TRUE", "X": 113.256066, "Y": 23.134624 }, "geometry": { "type": "Point", "coordinates": [ 113.256066, 23.134624 ] } },
{ "type": "Feature", "properties": { "NAME": "赵国", "ID": "212381", "SOURCE": "神农本草经集注", "QUOTE": "赵国属冀州，此即今人所呼孔公孽，大如牛羊角，长一、二尺左右，亦出始兴。", "PRECISION": 2, "CLASS": "middle", "HERB": "殷孽", "TYPE": "continue", "X": 114.516712, "Y": 36.591012 }, "geometry": { "type": "Point", "coordinates": [ 114.516712, 36.591012 ] } },
{ "type": "Feature", "properties": { "NAME": "始兴", "ID": "34176", "SOURCE": "神农本草经集注", "QUOTE": "赵国属冀州，此即今人所呼孔公孽，大如牛羊角，长一、二尺左右，亦出始兴。", "PRECISION": 2, "CLASS": "middle", "HERB": "殷孽", "TYPE": "TRUE", "X": 113.603417, "Y": 24.810209 }, "geometry": { "type": "Point", "coordinates": [ 113.603417, 24.810209 ] } },
{ "type": "Feature", "properties": { "NAME": "梁山山谷", "ID": "70312", "SOURCE": "神农本草经", "QUOTE": "生梁山山谷。", "PRECISION": 4, "CLASS": "middle", "HERB": "孔公孽", "TYPE": "TRUE", "X": 110.41963, "Y": 35.39751 }, "geometry": { "type": "Point", "coordinates": [ 110.41963, 35.39751 ] } },
{ "type": "Feature", "properties": { "NAME": "梁山", "ID": "70312", "SOURCE": "神农本草经集注", "QUOTE": "梁山属冯翊郡，此即今钟乳床也，亦出始兴，皆大块折破之。", "PRECISION": 4, "CLASS": "middle", "HERB": "孔公孽", "TYPE": "continue", "X": 110.41963, "Y": 35.39751 }, "geometry": { "type": "Point", "coordinates": [ 110.41963, 35.39751 ] } },
{ "type": "Feature", "properties": { "NAME": "始兴", "ID": "34176", "SOURCE": "神农本草经集注", "QUOTE": "梁山属冯翊郡，此即今钟乳床也，亦出始兴，皆大块折破之。", "PRECISION": 2, "CLASS": "middle", "HERB": "孔公孽", "TYPE": "TRUE", "X": 113.603417, "Y": 24.810209 }, "geometry": { "type": "Point", "coordinates": [ 113.603417, 24.810209 ] } },
{ "type": "Feature", "properties": { "NAME": "茅山东", "ID": "maoshan", "SOURCE": "神农本草经集注", "QUOTE": "此石亦钟乳之类，形如曾青而白色黑斑，软脆易破，今茅山东及西平山并有，凿土堪取之。", "PRECISION": 4, "CLASS": "middle", "HERB": "石脑", "TYPE": "TRUE", "X": 119.3025534, "Y": 31.7848258 }, "geometry": { "type": "Point", "coordinates": [ 119.3025534, 31.7848258 ] } },
{ "type": "Feature", "properties": { "NAME": "西平山", "ID": "211841", "SOURCE": "神农本草经集注", "QUOTE": "此石亦钟乳之类，形如曾青而白色黑斑，软脆易破，今茅山东及西平山并有，凿土堪取之。", "PRECISION": 2, "CLASS": "middle", "HERB": "石脑", "TYPE": "TRUE", "X": 101.78522, "Y": 36.618496 }, "geometry": { "type": "Point", "coordinates": [ 101.78522, 36.618496 ] } },
{ "type": "Feature", "properties": { "NAME": "徐州宗里山", "ID": "33439", "SOURCE": "新修本草", "QUOTE": "隋时有化公者，所服亦名石脑，出徐州宗里山，初在烂石中，入土一丈以下得之，大如鸡卵，或如枣许，触着即散如面，黄白色，土人号为握雪【兴石】，云服之长生。", "PRECISION": 4, "CLASS": "middle", "HERB": "石脑", "TYPE": "TRUE", "X": 117.187683, "Y": 34.269634 }, "geometry": { "type": "Point", "coordinates": [ 117.187683, 34.269634 ] } },
{ "type": "Feature", "properties": { "NAME": "东海牧羊山谷", "ID": "212614", "SOURCE": "神农本草经", "QUOTE": "生东海牧羊山谷中，及太山、河西山，矾石液也。", "PRECISION": 4, "CLASS": "middle", "HERB": "石硫黄", "TYPE": "TRUE", "X": 118.340384, "Y": 34.636984 }, "geometry": { "type": "Point", "coordinates": [ 118.340384, 34.636984 ] } },
{ "type": "Feature", "properties": { "NAME": "太山", "ID": "taishan", "SOURCE": "神农本草经", "QUOTE": "生东海牧羊山谷中，及太山、河西山，矾石液也。", "PRECISION": 4, "CLASS": "middle", "HERB": "石硫黄", "TYPE": "TRUE", "X": 117.103175, "Y": 36.2569183 }, "geometry": { "type": "Point", "coordinates": [ 117.103175, 36.2569183 ] } },
{ "type": "Feature", "properties": { "NAME": "河西山", "ID": "hexi", "SOURCE": "神农本草经", "QUOTE": "生东海牧羊山谷中，及太山、河西山，矾石液也。", "PRECISION": 1, "CLASS": "middle", "HERB": "石硫黄", "TYPE": "TRUE", "X": 101.5818192, "Y": 35.3002082 }, "geometry": { "type": "Point", "coordinates": [ 101.5818192, 35.3002082 ] } },
{ "type": "Feature", "properties": { "NAME": "东海郡", "ID": "212614", "SOURCE": "神农本草经集注", "QUOTE": "东海郡属北徐州，而箕山亦有。", "PRECISION": 2, "CLASS": "middle", "HERB": "石硫黄", "TYPE": "continue", "X": 118.340384, "Y": 34.636984 }, "geometry": { "type": "Point", "coordinates": [ 118.340384, 34.636984 ] } },
{ "type": "Feature", "properties": { "NAME": "箕山", "ID": "jishan", "SOURCE": "神农本草经集注", "QUOTE": "东海郡属北徐州，而箕山亦有。", "PRECISION": 4, "CLASS": "middle", "HERB": "石硫黄", "TYPE": "TRUE", "X": 113.0346154, "Y": 34.3767837 }, "geometry": { "type": "Point", "coordinates": [ 113.0346154, 34.3767837 ] } },
{ "type": "Feature", "properties": { "NAME": "扶南", "ID": "funan", "SOURCE": "神农本草经集注", "QUOTE": "今第一出扶南林邑，色如鹅子初出壳，名昆仑黄。", "PRECISION": 1, "CLASS": "middle", "HERB": "石硫黄", "TYPE": "TRUE", "X": 105.28134, "Y": 11.31922 }, "geometry": { "type": "Point", "coordinates": [ 105.28134, 11.31922 ] } },
{ "type": "Feature", "properties": { "NAME": "林邑", "ID": "hvd_110173", "SOURCE": "神农本草经集注", "QUOTE": "今第一出扶南林邑，色如鹅子初出壳，名昆仑黄。", "PRECISION": 1, "CLASS": "middle", "HERB": "石硫黄", "TYPE": "TRUE", "X": 108.2739, "Y": 15.788 }, "geometry": { "type": "Point", "coordinates": [ 108.2739, 15.788 ] } },
{ "type": "Feature", "properties": { "NAME": "齐山山谷", "ID": "45022", "SOURCE": "神农本草经", "QUOTE": "生齐山山谷及琅玡或云山、阳起山，采无时。", "PRECISION": 4, "CLASS": "middle", "HERB": "阳起石", "TYPE": "TRUE", "X": 117.00031, "Y": 36.64912 }, "geometry": { "type": "Point", "coordinates": [ 117.00031, 36.64912 ] } },
{ "type": "Feature", "properties": { "NAME": "琅玡", "ID": "hvd_115519", "SOURCE": "神农本草经", "QUOTE": "生齐山山谷及琅玡或云山、阳起山，采无时。", "PRECISION": 2, "CLASS": "middle", "HERB": "阳起石", "TYPE": "TRUE", "X": 118.38945, "Y": 35.1538 }, "geometry": { "type": "Point", "coordinates": [ 118.38945, 35.1538 ] } },
{ "type": "Feature", "properties": { "NAME": "云山", "ID": "45022", "SOURCE": "神农本草经", "QUOTE": "生齐山山谷及琅玡或云山、阳起山，采无时。", "PRECISION": 1, "CLASS": "middle", "HERB": "阳起石", "TYPE": "TRUE", "X": 117.00031, "Y": 36.64912 }, "geometry": { "type": "Point", "coordinates": [ 117.00031, 36.64912 ] } },
{ "type": "Feature", "properties": { "NAME": "阳起山", "ID": "yangqishan", "SOURCE": "神农本草经", "QUOTE": "生齐山山谷及琅玡或云山、阳起山，采无时。", "PRECISION": 4, "CLASS": "middle", "HERB": "阳起石", "TYPE": "TRUE", "X": 116.8743628, "Y": 36.6115209 }, "geometry": { "type": "Point", "coordinates": [ 116.8743628, 36.6115209 ] } },
{ "type": "Feature", "properties": { "NAME": "益州", "ID": "211052", "SOURCE": "神农本草经集注", "QUOTE": "今用乃出益州，与矾石同处，色小黄黑即矾石。", "PRECISION": 2, "CLASS": "middle", "HERB": "阳起石", "TYPE": "TRUE", "X": 104.075475, "Y": 30.665916 }, "geometry": { "type": "Point", "coordinates": [ 104.075475, 30.665916 ] } },
{ "type": "Feature", "properties": { "NAME": "齐山", "ID": "45022", "SOURCE": "新修本草", "QUOTE": "《经》言生齐山，齐山在齐州历城西北五六里，采访无阳起石，阳起石乃在齐山西北六七里卢山出之。", "PRECISION": 4, "CLASS": "middle", "HERB": "阳起石", "TYPE": "FALSE", "X": 117.00031, "Y": 36.64912 }, "geometry": { "type": "Point", "coordinates": [ 117.00031, 36.64912 ] } },
{ "type": "Feature", "properties": { "NAME": "卢山", "ID": "45022", "SOURCE": "新修本草", "QUOTE": "《经》言生齐山，齐山在齐州历城西北五六里，采访无阳起石，阳起石乃在齐山西北六七里卢山出之。", "PRECISION": 4, "CLASS": "middle", "HERB": "阳起石", "TYPE": "continue", "X": 117.00031, "Y": 36.64912 }, "geometry": { "type": "Point", "coordinates": [ 117.00031, 36.64912 ] } },
{ "type": "Feature", "properties": { "NAME": "太山", "ID": "taishan", "SOURCE": "新修本草", "QUOTE": "今太山、沂州唯有黑者，其白者独出齐州也。", "PRECISION": 4, "CLASS": "middle", "HERB": "阳起石", "TYPE": "TRUE", "X": 117.103175, "Y": 36.2569183 }, "geometry": { "type": "Point", "coordinates": [ 117.103175, 36.2569183 ] } },
{ "type": "Feature", "properties": { "NAME": "沂州", "ID": "212534", "SOURCE": "新修本草", "QUOTE": "今太山、沂州唯有黑者，其白者独出齐州也。", "PRECISION": 2, "CLASS": "middle", "HERB": "阳起石", "TYPE": "TRUE", "X": 118.331044, "Y": 35.061193 }, "geometry": { "type": "Point", "coordinates": [ 118.331044, 35.061193 ] } },
{ "type": "Feature", "properties": { "NAME": "常山山谷", "ID": "changshan", "SOURCE": "神农本草经", "QUOTE": "生常山山谷，又中水县及邯郸。", "PRECISION": 4, "CLASS": "middle", "HERB": "凝水石", "TYPE": "TRUE", "X": 114.461205, "Y": 39.0580325 }, "geometry": { "type": "Point", "coordinates": [ 114.461205, 39.0580325 ] } },
{ "type": "Feature", "properties": { "NAME": "中水县", "ID": "87356", "SOURCE": "神农本草经", "QUOTE": "生常山山谷，又中水县及邯郸。", "PRECISION": 3, "CLASS": "middle", "HERB": "凝水石", "TYPE": "TRUE", "X": 115.94853, "Y": 38.22616 }, "geometry": { "type": "Point", "coordinates": [ 115.94853, 38.22616 ] } },
{ "type": "Feature", "properties": { "NAME": "邯郸", "ID": "87010", "SOURCE": "神农本草经", "QUOTE": "生常山山谷，又中水县及邯郸。", "PRECISION": 2, "CLASS": "middle", "HERB": "凝水石", "TYPE": "TRUE", "X": 114.47204, "Y": 36.59347 }, "geometry": { "type": "Point", "coordinates": [ 114.47204, 36.59347 ] } },
{ "type": "Feature", "properties": { "NAME": "常山", "ID": "changshan", "SOURCE": "神农本草经集注", "QUOTE": "常山即恒山，属并州。中水县属河间郡。邯郸即是赵郡，并属冀州城。", "PRECISION": 4, "CLASS": "middle", "HERB": "凝水石", "TYPE": "continue", "X": 114.461205, "Y": 39.0580325 }, "geometry": { "type": "Point", "coordinates": [ 114.461205, 39.0580325 ] } },
{ "type": "Feature", "properties": { "NAME": "中水县", "ID": "87356", "SOURCE": "神农本草经集注", "QUOTE": "常山即恒山，属并州。中水县属河间郡。邯郸即是赵郡，并属冀州城。", "PRECISION": 3, "CLASS": "middle", "HERB": "凝水石", "TYPE": "continue", "X": 115.94853, "Y": 38.22616 }, "geometry": { "type": "Point", "coordinates": [ 115.94853, 38.22616 ] } },
{ "type": "Feature", "properties": { "NAME": "邯郸", "ID": "87010", "SOURCE": "神农本草经集注", "QUOTE": "常山即恒山，属并州。中水县属河间郡。邯郸即是赵郡，并属冀州城。", "PRECISION": 2, "CLASS": "middle", "HERB": "凝水石", "TYPE": "continue", "X": 114.47204, "Y": 36.59347 }, "geometry": { "type": "Point", "coordinates": [ 114.47204, 36.59347 ] } },
{ "type": "Feature", "properties": { "NAME": "同州韩城", "ID": "70313", "SOURCE": "新修本草", "QUOTE": "今出同州韩城，色青黄，理如云母为良；", "PRECISION": 3, "CLASS": "middle", "HERB": "凝水石", "TYPE": "TRUE", "X": 110.43764, "Y": 35.46594 }, "geometry": { "type": "Point", "coordinates": [ 110.43764, 35.46594 ] } },
{ "type": "Feature", "properties": { "NAME": "澄城", "ID": "70310", "SOURCE": "新修本草", "QUOTE": "出澄城者，斜理文色白为劣也。", "PRECISION": 3, "CLASS": "middle", "HERB": "凝水石", "TYPE": "TRUE", "X": 109.93044, "Y": 35.19091 }, "geometry": { "type": "Point", "coordinates": [ 109.93044, 35.19091 ] } },
{ "type": "Feature", "properties": { "NAME": "齐山山谷", "ID": "45022", "SOURCE": "神农本草经", "QUOTE": "生齐山山谷及齐卢山、鲁蒙山，采无时。", "PRECISION": 4, "CLASS": "middle", "HERB": "石膏", "TYPE": "TRUE", "X": 117.00031, "Y": 36.64912 }, "geometry": { "type": "Point", "coordinates": [ 117.00031, 36.64912 ] } },
{ "type": "Feature", "properties": { "NAME": "齐卢山", "ID": "45022", "SOURCE": "神农本草经", "QUOTE": "生齐山山谷及齐卢山、鲁蒙山，采无时。", "PRECISION": 4, "CLASS": "middle", "HERB": "石膏", "TYPE": "TRUE", "X": 117.00031, "Y": 36.64912 }, "geometry": { "type": "Point", "coordinates": [ 117.00031, 36.64912 ] } },
{ "type": "Feature", "properties": { "NAME": "鲁蒙山", "ID": "mengshan", "SOURCE": "神农本草经", "QUOTE": "生齐山山谷及齐卢山、鲁蒙山，采无时。", "PRECISION": 4, "CLASS": "middle", "HERB": "石膏", "TYPE": "TRUE", "X": 118.0821683, "Y": 35.4741413 }, "geometry": { "type": "Point", "coordinates": [ 118.0821683, 35.4741413 ] } },
{ "type": "Feature", "properties": { "NAME": "青州", "ID": "210501", "SOURCE": "神农本草经集注", "QUOTE": "二郡之山，即青州、徐州也。", "PRECISION": 2, "CLASS": "middle", "HERB": "石膏", "TYPE": "continue", "X": 118.344592, "Y": 36.851221 }, "geometry": { "type": "Point", "coordinates": [ 118.344592, 36.851221 ] } },
{ "type": "Feature", "properties": { "NAME": "徐州", "ID": "33437", "SOURCE": "神农本草经集注", "QUOTE": "二郡之山，即青州、徐州也。", "PRECISION": 2, "CLASS": "middle", "HERB": "石膏", "TYPE": "continue", "X": 117.187683, "Y": 34.269634 }, "geometry": { "type": "Point", "coordinates": [ 117.187683, 34.269634 ] } },
{ "type": "Feature", "properties": { "NAME": "钱塘县", "ID": "40079", "SOURCE": "神农本草经集注", "QUOTE": "今出钱塘县，皆在地中，雨后时时自出，取之皆方如棋子，白澈最佳。", "PRECISION": 3, "CLASS": "middle", "HERB": "石膏", "TYPE": "TRUE", "X": 120.168625, "Y": 30.294125 }, "geometry": { "type": "Point", "coordinates": [ 120.168625, 30.294125 ] } },
{ "type": "Feature", "properties": { "NAME": "彭城", "ID": "42777", "SOURCE": "神农本草经集注", "QUOTE": "比难得，皆用虚隐山者。彭城者亦好。", "PRECISION": 3, "CLASS": "middle", "HERB": "石膏", "TYPE": "TRUE", "X": 117.187683, "Y": 34.269634 }, "geometry": { "type": "Point", "coordinates": [ 117.187683, 34.269634 ] } },
{ "type": "Feature", "properties": { "NAME": "慈山山阴", "ID": "87978", "SOURCE": "神农本草经", "QUOTE": "生大山川谷及慈山山阴，有铁者则生其阳，采无时。", "PRECISION": 4, "CLASS": "middle", "HERB": "磁石", "TYPE": "TRUE", "X": 114.37425, "Y": 36.35904 }, "geometry": { "type": "Point", "coordinates": [ 114.37425, 36.35904 ] } },
{ "type": "Feature", "properties": { "NAME": "太山之阳", "ID": "taishan", "SOURCE": "神农本草经", "QUOTE": "生太山之阳，山阴有铜。", "PRECISION": 4, "CLASS": "middle", "HERB": "玄石", "TYPE": "TRUE", "X": 117.103175, "Y": 36.2569183 }, "geometry": { "type": "Point", "coordinates": [ 117.103175, 36.2569183 ] } },
{ "type": "Feature", "properties": { "NAME": "汉中山谷", "ID": "211672", "SOURCE": "神农本草经", "QUOTE": "生汉中山谷及卢山，采无时。", "PRECISION": 2, "CLASS": "middle", "HERB": "理石", "TYPE": "TRUE", "X": 107.036067, "Y": 33.072893 }, "geometry": { "type": "Point", "coordinates": [ 107.036067, 33.072893 ] } },
{ "type": "Feature", "properties": { "NAME": "卢山", "ID": "45022", "SOURCE": "神农本草经", "QUOTE": "生汉中山谷及卢山，采无时。", "PRECISION": 4, "CLASS": "middle", "HERB": "理石", "TYPE": "TRUE", "X": 117.00031, "Y": 36.64912 }, "geometry": { "type": "Point", "coordinates": [ 117.00031, 36.64912 ] } },
{ "type": "Feature", "properties": { "NAME": "宁州", "ID": "212079", "SOURCE": "神农本草经集注", "QUOTE": "今出宁州。", "PRECISION": 2, "CLASS": "middle", "HERB": "理石", "TYPE": "TRUE", "X": 102.594418, "Y": 28.71674 }, "geometry": { "type": "Point", "coordinates": [ 102.594418, 28.71674 ] } },
{ "type": "Feature", "properties": { "NAME": "卢山", "ID": "45022", "SOURCE": "新修本草", "QUOTE": "今卢山亦无此物，见出襄州西泛水侧也。", "PRECISION": 4, "CLASS": "middle", "HERB": "理石", "TYPE": "FALSE", "X": 117.00031, "Y": 36.64912 }, "geometry": { "type": "Point", "coordinates": [ 117.00031, 36.64912 ] } },
{ "type": "Feature", "properties": { "NAME": "襄州西泛水侧", "ID": "34356", "SOURCE": "新修本草", "QUOTE": "今卢山亦无此物，见出襄州西泛水侧也。", "PRECISION": 4, "CLASS": "middle", "HERB": "理石", "TYPE": "TRUE", "X": 112.158699, "Y": 32.026524 }, "geometry": { "type": "Point", "coordinates": [ 112.158699, 32.026524 ] } },
{ "type": "Feature", "properties": { "NAME": "长子山谷", "ID": "95323", "SOURCE": "神农本草经", "QUOTE": "生长子山谷及太山、临淄，采无时。", "PRECISION": 3, "CLASS": "middle", "HERB": "长石", "TYPE": "TRUE", "X": 112.863149, "Y": 36.116395 }, "geometry": { "type": "Point", "coordinates": [ 112.863149, 36.116395 ] } },
{ "type": "Feature", "properties": { "NAME": "太山", "ID": "taishan", "SOURCE": "神农本草经", "QUOTE": "生长子山谷及太山、临淄，采无时。", "PRECISION": 4, "CLASS": "middle", "HERB": "长石", "TYPE": "TRUE", "X": 117.103175, "Y": 36.2569183 }, "geometry": { "type": "Point", "coordinates": [ 117.103175, 36.2569183 ] } },
{ "type": "Feature", "properties": { "NAME": "临淄", "ID": "85234", "SOURCE": "神农本草经", "QUOTE": "生长子山谷及太山、临淄，采无时。", "PRECISION": 3, "CLASS": "middle", "HERB": "长石", "TYPE": "TRUE", "X": 118.37041, "Y": 36.86401 }, "geometry": { "type": "Point", "coordinates": [ 118.37041, 36.86401 ] } },
{ "type": "Feature", "properties": { "NAME": "长子县", "ID": "95323", "SOURCE": "神农本草经集注", "QUOTE": "长子县属上党郡，临淄县属青州。", "PRECISION": 3, "CLASS": "middle", "HERB": "长石", "TYPE": "continue", "X": 112.863149, "Y": 36.116395 }, "geometry": { "type": "Point", "coordinates": [ 112.863149, 36.116395 ] } },
{ "type": "Feature", "properties": { "NAME": "临淄县", "ID": "85234", "SOURCE": "神农本草经集注", "QUOTE": "长子县属上党郡，临淄县属青州。", "PRECISION": 3, "CLASS": "middle", "HERB": "长石", "TYPE": "continue", "X": 118.37041, "Y": 36.86401 }, "geometry": { "type": "Point", "coordinates": [ 118.37041, 36.86401 ] } },
{ "type": "Feature", "properties": { "NAME": "均州辽山", "ID": "34492", "SOURCE": "新修本草", "QUOTE": "此石状同石膏而浓大，纵理而长，文似马齿，今均州辽山有之，土人以为理石者，是长石也。", "PRECISION": 4, "CLASS": "middle", "HERB": "长石", "TYPE": "TRUE", "X": 111.16557, "Y": 32.668153 }, "geometry": { "type": "Point", "coordinates": [ 111.16557, 32.668153 ] } },
{ "type": "Feature", "properties": { "NAME": "益州川谷", "ID": "211050", "SOURCE": "神农本草经", "QUOTE": "生益州川谷。", "PRECISION": 1, "CLASS": "middle", "HERB": "肤青", "TYPE": "TRUE", "X": 104.286183, "Y": 30.994009 }, "geometry": { "type": "Point", "coordinates": [ 104.286183, 30.994009 ] } },
{ "type": "Feature", "properties": { "NAME": "牧羊平泽", "ID": "212614", "SOURCE": "神农本草经", "QUOTE": "生牧羊平泽及枋城、或析城，采无时。", "PRECISION": 4, "CLASS": "middle", "HERB": "铁落", "TYPE": "TRUE", "X": 118.340384, "Y": 34.636984 }, "geometry": { "type": "Point", "coordinates": [ 118.340384, 34.636984 ] } },
{ "type": "Feature", "properties": { "NAME": "枋城", "ID": "fangcheng", "SOURCE": "神农本草经", "QUOTE": "生牧羊平泽及枋城、或析城，采无时。", "PRECISION": 3, "CLASS": "middle", "HERB": "铁落", "TYPE": "TRUE", "X": 114.2266873, "Y": 35.6444798 }, "geometry": { "type": "Point", "coordinates": [ 114.2266873, 35.6444798 ] } },
{ "type": "Feature", "properties": { "NAME": "析城", "ID": "xicheng", "SOURCE": "神农本草经", "QUOTE": "生牧羊平泽及枋城、或析城，采无时。", "PRECISION": 3, "CLASS": "middle", "HERB": "铁落", "TYPE": "TRUE", "X": 112.3607073, "Y": 35.4653663 }, "geometry": { "type": "Point", "coordinates": [ 112.3607073, 35.4653663 ] } },
{ "type": "Feature", "properties": { "NAME": "盐州五原", "ID": "211421", "SOURCE": "新修本草", "QUOTE": "生盐州五原，盐池下凿取之。", "PRECISION": 3, "CLASS": "middle", "HERB": "光明盐", "TYPE": "TRUE", "X": 107.43605, "Y": 38.22477 }, "geometry": { "type": "Point", "coordinates": [ 107.43605, 38.22477 ] } },
{ "type": "Feature", "properties": { "NAME": "焉耆国", "ID": "yanqi", "SOURCE": "新修本草", "QUOTE": "真者，出焉耆国，水中石下取之，状若扁青、空青，为眼药之要。", "PRECISION": 1, "CLASS": "middle", "HERB": "绿盐", "TYPE": "TRUE", "X": 85.4310887, "Y": 42.0880184 }, "geometry": { "type": "Point", "coordinates": [ 85.4310887, 42.0880184 ] } },
{ "type": "Feature", "properties": { "NAME": "波斯国", "ID": "bosi", "SOURCE": "新修本草", "QUOTE": "形似黄龙齿而坚重，亦有白色者，作理石文，出波斯国。", "PRECISION": 1, "CLASS": "middle", "HERB": "密陀僧", "TYPE": "TRUE", "X": 51.65, "Y": 32.633333 }, "geometry": { "type": "Point", "coordinates": [ 51.65, 32.633333 ] } },
{ "type": "Feature", "properties": { "NAME": "申州钟山县", "ID": "83134", "SOURCE": "新修本草", "QUOTE": "出申州钟山县，似赤石脂，但舐之不着舌者为真。", "PRECISION": 3, "CLASS": "middle", "HERB": "桃花石", "TYPE": "TRUE", "X": 114.14755, "Y": 32.07893 }, "geometry": { "type": "Point", "coordinates": [ 114.14755, 32.07893 ] } },
{ "type": "Feature", "properties": { "NAME": "南海", "ID": "42194", "SOURCE": "新修本草", "QUOTE": "生南海。", "PRECISION": 2, "CLASS": "middle", "HERB": "珊瑚", "TYPE": "TRUE", "X": 113.256066, "Y": 23.134624 }, "geometry": { "type": "Point", "coordinates": [ 113.256066, 23.134624 ] } },
{ "type": "Feature", "properties": { "NAME": "波斯国", "ID": "bosi", "SOURCE": "新修本草", "QUOTE": "又从波斯国及师子国来。", "PRECISION": 1, "CLASS": "middle", "HERB": "珊瑚", "TYPE": "TRUE", "X": 51.65, "Y": 32.633333 }, "geometry": { "type": "Point", "coordinates": [ 51.65, 32.633333 ] } },
{ "type": "Feature", "properties": { "NAME": "师子国", "ID": "shiziguo", "SOURCE": "新修本草", "QUOTE": "又从波斯国及师子国来。", "PRECISION": 1, "CLASS": "middle", "HERB": "珊瑚", "TYPE": "TRUE", "X": 79.842778, "Y": 6.934444 }, "geometry": { "type": "Point", "coordinates": [ 79.842778, 6.934444 ] } }
]
}
